X,Y,OBJECTID,SERVICECODE,SERVICECODEDESCRIPTION,SERVICETYPECODEDESCRIPTION,ORGANIZATIONACRONYM,SERVICECALLCOUNT,ADDDATE,RESOLUTIONDATE,SERVICEDUEDATE,SERVICEORDERDATE,INSPECTIONFLAG,INSPECTIONDATE,INSPECTORNAME,SERVICEORDERSTATUS,STATUS_CODE,SERVICEREQUESTID,PRIORITY,STREETADDRESS,XCOORD,YCOORD,LATITUDE,LONGITUDE,CITY,STATE,ZIPCODE,MARADDRESSREPOSITORYID,WARD,DETAILS,GIS_ID,GLOBALID,CREATOR,CREATED,EDITOR,EDITED
-77.0234535675597,38.9818500722836,10724421,S0336,Out of State Parking Violation (ROSA),PEMA- Parking Enforcement Management Administration,DPW,1,2023/03/15 04:34:29+00,2023/03/15 07:46:56+00,2023/04/26 04:34:29+00,2023/03/15 04:34:29+00,,,,Closed,,23-00124003,Standard,7500 EASTERN AVENUE NW,397968.08,145990.78,38.9818426,-77.02345127,WASHINGTON,DC,20012,251131,4,,,{F6EA0B7F-2B37-77F1-E053-782F520A3108},,,,
-77.0249353417282,38.9210841863842,10724422,S0261,Parking Enforcement,PEMA- Parking Enforcement Management Administration,DPW,1,2023/03/15 04:39:45+00,2023/03/15 08:37:17+00,2023/03/16 04:39:45+00,2023/03/15 04:39:45+00,,,,Closed,,23-00124004,Standard,2323 SHERMAN AVENUE NW,397837.85,139245.25,38.92107639,-77.02493305,WASHINGTON,DC,20001,232313,1,,,{F6EA0B7F-2B38-77F1-E053-782F520A3108},,,,
-76.9805222850008,38.8890216161522,10724423,S0336,Out of State Parking Violation (ROSA),PEMA- Parking Enforcement Management Administration,DPW,1,2023/03/15 05:03:54+00,2023/03/15 07:10:37+00,2023/04/27 05:03:54+00,2023/03/15 05:03:54+00,,,,Closed,,23-00124007,Standard,30 17TH STREET SE,401690.03,135685.93,38.88901416,-76.98052001,WASHINGTON,DC,20003,155403,7,,,{F6EA76D6-0841-1BC3-E053-782F520A3E86},,,,
-76.9809786495137,38.9027322459056,10724429,S0261,Parking Enforcement,PEMA- Parking Enforcement Management Administration,DPW,1,2023/03/15 10:59:06+00,2023/03/15 16:04:07+00,2023/03/16 10:59:06+00,2023/03/15 10:59:06+00,,,,Closed,,23-00124040,Standard,1606 K STREET NE,401650.12,137207.91,38.90272479,-76.98097637,WASHINGTON,DC,20002,60120,5,,,{F6EF7E33-55EB-7477-E053-782F520AA985},,,,
-76.9439752841731,38.8675175728962,10724431,S0261,Parking Enforcement,PEMA- Parking Enforcement Management Administration,DPW,1,2023/03/15 11:07:59+00,2023/03/15 12:55:44+00,2023/03/16 11:07:59+00,2023/03/15 11:07:59+00,,,,Closed,,23-00124043,Standard,1531 41ST STREET SE,404862.21,133300.13,38.86751012,-76.94397302,WASHINGTON,DC,20020,61047,7,,,{F6EF7E33-55ED-7477-E053-782F520AA985},,,,
-77.0404726076199,38.9199418158558,10724441,S0261,Parking Enforcement,PEMA- Parking Enforcement Management Administration,DPW,1,2023/03/15 12:30:50+00,2023/03/15 17:39:21+00,2023/03/16 12:30:50+00,2023/03/15 12:30:50+00,,,,Closed,,23-00124156,Standard,2201 CHAMPLAIN STREET NW,396490.43,139118.92,38.91993436,-77.04047031,WASHINGTON,DC,20009,235650,1,,,{F6F0C010-24F7-6CE5-E053-782F520AFC2B},,,,
-77.0534768386114,38.9045880852458,10724443,S0261,Parking Enforcement,PEMA- Parking Enforcement Management Administration,DPW,1,2023/03/15 12:33:30+00,2023/03/15 15:08:27+00,2023/03/16 12:33:30+00,2023/03/15 12:33:30+00,,,,Closed,,23-00124162,Standard,1124 25TH STREET NW,395361.71,137415.11,38.90458063,-77.05347454,WASHINGTON,DC,20037,274880,2,,,{F6F0C010-24F9-6CE5-E053-782F520AFC2B},,,,
-76.9759770098962,38.9011859408719,10724445,S0261,Parking Enforcement,PEMA- Parking Enforcement Management Administration,DPW,1,2023/03/15 12:36:09+00,2023/03/15 14:19:52+00,2023/03/16 12:36:09+00,2023/03/15 12:36:09+00,,,,Closed,,23-00124167,Standard,845 19TH STREET NE,402084.01,137036.36,38.90117849,-76.97597473,WASHINGTON,DC,20002,81391,5,,,{F6F0C010-24FB-6CE5-E053-782F520AFC2B},,,,
-77.0359532605729,38.9108864030745,10724450,S0261,Parking Enforcement,PEMA- Parking Enforcement Management Administration,DPW,1,2023/03/15 12:40:23+00,2023/03/15 13:12:59+00,2023/03/16 12:40:22+00,2023/03/15 12:40:23+00,,,,Closed,,23-00124181,Standard,1529 16TH STREET NW,396881.95,138113.53,38.91087895,-77.03595097,WASHINGTON,DC,20036,225737,2,,,{F6F0C010-2500-6CE5-E053-782F520AFC2B},,,,
-77.0359532605729,38.9108864030745,10724451,S0261,Parking Enforcement,PEMA- Parking Enforcement Management Administration,DPW,1,2023/03/15 12:40:39+00,2023/03/15 14:02:54+00,2023/03/16 12:40:39+00,2023/03/15 12:40:39+00,,,,Closed,,23-00124182,Standard,1529 16TH STREET NW,396881.95,138113.53,38.91087895,-77.03595097,WASHINGTON,DC,20036,225737,2,,,{F6F0C010-2501-6CE5-E053-782F520AFC2B},,,,
-76.991773112311,38.8939979148027,10724453,S0261,Parking Enforcement,PEMA- Parking Enforcement Management Administration,DPW,1,2023/03/15 12:40:46+00,2023/03/15 14:59:30+00,2023/03/16 12:40:46+00,2023/03/15 12:40:46+00,,,,Closed,,23-00124184,Standard,310 11TH STREET NE,400713.89,136238.19,38.89399046,-76.99177083,WASHINGTON,DC,20002,40839,6,,,{F6F0C010-2503-6CE5-E053-782F520AFC2B},,,,
-76.9886711436944,38.9229904777975,10724456,S0261,Parking Enforcement,PEMA- Parking Enforcement Management Administration,DPW,1,2023/03/15 12:42:12+00,2023/03/15 14:00:02+00,2023/03/16 12:42:12+00,2023/03/15 12:42:12+00,,,,Closed,,23-00124189,Standard,1230 BRENTWOOD ROAD NE,400982.59,139456.63,38.92298302,-76.98866886,WASHINGTON,DC,20018,70537,5,,,{F6F0C010-2506-6CE5-E053-782F520AFC2B},,,,
-77.0435045368619,38.9168732094581,10724462,S0261,Parking Enforcement,PEMA- Parking Enforcement Management Administration,DPW,1,2023/03/15 14:54:54+00,2023/03/15 16:16:36+00,2023/03/16 14:54:54+00,2023/03/15 14:54:54+00,,,,Closed,,23-00124710,Standard,1848 VERNON STREET NW,396227.34,138778.4,38.91686575,-77.04350224,WASHINGTON,DC,20009,305001,1,,,{F6F2A2DD-5417-6F02-E053-782F520AEA37},,,,
-77.0013039011338,38.9172018178742,10724471,S0261,Parking Enforcement,PEMA- Parking Enforcement Management Administration,DPW,1,2023/03/15 14:58:01+00,2023/03/15 16:21:05+00,2023/03/16 14:58:01+00,2023/03/15 14:58:01+00,,,,Closed,,23-00124723,Standard,350 U STREET NE,399887.12,138813.98,38.91719403,-77.00130162,WASHINGTON,DC,20002,287964,5,,,{F6F2A2DD-5420-6F02-E053-782F520AEA37},,,,
-76.9708162351901,38.8532219905569,10724477,S0261,Parking Enforcement,PEMA- Parking Enforcement Management Administration,DPW,1,2023/03/15 14:45:25+00,2023/03/15 17:33:42+00,2023/03/16 14:45:25+00,2023/03/15 14:45:25+00,,,,Closed,,23-00124663,Standard,2422 IRVING STREET SE,402533.37,131712.13,38.85321455,-76.97081396,WASHINGTON,DC,20020,47255,8,,,{F6F2A2DD-5426-6F02-E053-782F520AEA37},,,,
-76.9729454121382,38.8898797765438,10724482,S0261,Parking Enforcement,PEMA- Parking Enforcement Management Administration,DPW,1,2023/03/15 14:47:01+00,2023/03/15 15:43:06+00,2023/03/16 14:47:01+00,2023/03/15 14:47:01+00,,,,Closed,,23-00124677,Standard,2400 EAST CAPITOL STREET NE,402347.35,135781.36,38.88987232,-76.97294314,WASHINGTON,DC,20003,307772,7,,,{F6F2A2DD-542B-6F02-E053-782F520AEA37},,,,
-76.9819918210061,38.8943732763674,10724491,S0261,Parking Enforcement,PEMA- Parking Enforcement Management Administration,DPW,1,2023/03/15 14:50:56+00,2023/03/15 16:14:03+00,2023/03/16 14:50:56+00,2023/03/15 14:50:56+00,,,,Closed,,23-00124696,Standard,333 16TH STREET NE,401562.42,136279.98,38.89436582,-76.98198954,WASHINGTON,DC,20002,36209,7,,,{F6F2A2DD-5434-6F02-E053-782F520AEA37},,,,
-77.0435045368619,38.9168732094581,10724494,S0261,Parking Enforcement,PEMA- Parking Enforcement Management Administration,DPW,1,2023/03/15 14:59:16+00,2023/03/15 16:16:36+00,2023/03/16 14:59:16+00,2023/03/15 14:59:16+00,,,,Closed (Duplicate),,23-00124726,Standard,1848 VERNON STREET NW,396227.34,138778.4,38.91686575,-77.04350224,WASHINGTON,DC,20009,305001,1,,,{F6F2D87E-3904-7F8A-E053-782F520AED12},,,,
-77.0194838440462,38.9356821137109,10724500,S0336,Out of State Parking Violation (ROSA),PEMA- Parking Enforcement Management Administration,DPW,1,2023/03/15 15:00:13+00,2023/03/16 07:01:07+00,2023/04/27 15:00:13+00,2023/03/15 15:00:13+00,,,,Closed,,23-00124732,Standard,3646 PARK PLACE NW,398310.94,140865.63,38.93567432,-77.01948155,WASHINGTON,DC,20010,228552,1,,,{F6F2D87E-390A-7F8A-E053-782F520AED12},,,,
-76.9658612221059,38.8722226458153,10724511,S0261,Parking Enforcement,PEMA- Parking Enforcement Management Administration,DPW,1,2023/03/15 15:06:11+00,2023/03/15 16:44:39+00,2023/03/16 15:06:11+00,2023/03/15 15:06:11+00,,,,Closed,,23-00124752,Standard,2908 P STREET SE,402962.68,133821.49,38.8722152,-76.96585895,WASHINGTON,DC,20020,43608,7,,,{F6F2D87E-3915-7F8A-E053-782F520AED12},,,,
-77.0175515760437,38.9085797060488,10724518,S0261,Parking Enforcement,PEMA- Parking Enforcement Management Administration,DPW,1,2023/03/15 15:08:42+00,2023/03/15 15:39:10+00,2023/03/16 15:08:42+00,2023/03/15 15:08:42+00,,,,Closed,,23-00124767,Standard,400 - 499 BLOCK OF O STREET NW,398477.88999999,137857.000007,38.90857192,-77.01754929,WASHINGTON,DC,20001,803178,2,,,{F6F2D87E-391C-7F8A-E053-782F520AED12},,,,
-76.9213893800495,38.8929368729848,10724524,S0261,Parking Enforcement,PEMA- Parking Enforcement Management Administration,DPW,1,2023/03/15 15:11:09+00,2023/03/15 16:12:14+00,2023/03/16 15:11:09+00,2023/03/15 15:11:09+00,,,,Closed,,23-00124775,Standard,270 56TH STREET NE,406819.86,136123.31,38.89292942,-76.92138712,WASHINGTON,DC,20019,45380,7,,,{F6F2D87E-3922-7F8A-E053-782F520AED12},,,,
-76.9208520330362,38.8868703572516,10724525,S0261,Parking Enforcement,PEMA- Parking Enforcement Management Administration,DPW,1,2023/03/15 15:12:04+00,2023/03/15 17:18:32+00,2023/03/16 15:12:04+00,2023/03/15 15:12:04+00,,,,Closed,,23-00124777,Standard,126 56TH STREET SE,406867.06,135449.92,38.8868629,-76.92084977,WASHINGTON,DC,20019,69387,7,,,{F6F2D87E-3923-7F8A-E053-782F520AED12},,,,
-77.033119626435,38.9016304396607,10724543,S0261,Parking Enforcement,PEMA- Parking Enforcement Management Administration,DPW,1,2023/03/15 15:55:27+00,2023/03/15 15:58:55+00,2023/03/16 15:55:26+00,2023/03/15 15:55:27+00,,,,Closed,,23-00124926,Standard,901 15TH STREET NW,397127.34,137085.95,38.90162299,-77.03311733,WASHINGTON,DC,20005,218779,2,,,{F6F3796F-ECA8-1362-E053-782F520A4D54},,,,
-77.0361185811428,38.9085721982934,10724554,S0261,Parking Enforcement,PEMA- Parking Enforcement Management Administration,DPW,1,2023/03/15 16:15:27+00,2023/03/15 16:56:27+00,2023/03/16 16:15:27+00,2023/03/15 16:15:27+00,,,,Closed,,23-00125002,Standard,1333 16TH STREET NW,396867.51,137856.64,38.90856474,-77.03611629,WASHINGTON,DC,20036,242315,2,,,{F6F3E4BB-06ED-4F2C-E053-782F520A8327},,,,
-77.0372238912497,38.9352430693018,10724559,S0261,Parking Enforcement,PEMA- Parking Enforcement Management Administration,DPW,1,2023/03/15 16:19:01+00,2023/03/15 16:34:03+00,2023/03/16 16:19:01+00,2023/03/15 16:19:01+00,,,,Closed,,23-00125014,Standard,3448 BROWN STREET NW,396772.85,140817.37,38.93523561,-77.03722159,WASHINGTON,DC,20010,234077,1,,,{F6F3E4BB-06F2-4F2C-E053-782F520A8327},,,,
-77.0280663255335,38.9648350227132,10724577,S0261,Parking Enforcement,PEMA- Parking Enforcement Management Administration,DPW,1,2023/03/15 16:28:48+00,2023/03/15 18:12:05+00,2023/03/16 16:28:48+00,2023/03/15 16:28:48+00,,,,Closed,,23-00125046,Standard,1000 RITTENHOUSE STREET NW,397567.83,144102.06,38.96482756,-77.02806403,WASHINGTON,DC,20011,259674,4,,,{F6F3E4BB-0704-4F2C-E053-782F520A8327},,,,
-77.0490699137686,38.9009185733382,10724615,S0261,Parking Enforcement,PEMA- Parking Enforcement Management Administration,DPW,1,2023/03/15 17:48:08+00,2023/03/15 20:59:38+00,2023/03/16 17:48:08+00,2023/03/15 17:48:08+00,,,,Closed,,23-00125320,Standard,2201 I STREET NW,395743.74,137007.55,38.90091112,-77.04906762,WASHINGTON,DC,20037,310098,2,,,{F6F5269D-C20E-5D0F-E053-782F520A7306},,,,
-77.0345257556052,38.9497473072396,10724619,S0261,Parking Enforcement,PEMA- Parking Enforcement Management Administration,DPW,1,2023/03/15 17:50:19+00,2023/03/15 23:05:57+00,2023/03/16 17:50:19+00,2023/03/15 17:50:19+00,,,,Closed,,23-00125328,Standard,15TH STREET NW AND EMERSON STREET NW,397007.39001117,142427.37700789,38.94973951,-77.03452346,WASHINGTON,DC,20011,901136,4,,,{F6F5269D-C212-5D0F-E053-782F520A7306},,,,
-77.000571003945,38.9186493724641,10724622,S0261,Parking Enforcement,PEMA- Parking Enforcement Management Administration,DPW,1,2023/03/15 17:52:02+00,2023/03/15 21:23:44+00,2023/03/16 17:52:02+00,2023/03/15 17:52:02+00,,,,Closed,,23-00125334,Standard,2100 - 2199 BLOCK OF 4TH STREET NE,399950.67999999,138974.670007,38.91864158,-77.00056872,WASHINGTON,DC,20002,802951,5,,,{F6F5269D-C215-5D0F-E053-782F520A7306},,,,
-76.9910292851452,38.9011369887279,10724640,S0261,Parking Enforcement,PEMA- Parking Enforcement Management Administration,DPW,1,2023/03/15 18:06:31+00,2023/03/15 19:55:47+00,2023/03/16 18:06:31+00,2023/03/15 18:06:31+00,,,,Closed,,23-00125382,Standard,1111 I STREET NE,400778.34,137030.69,38.90112953,-76.991027,WASHINGTON,DC,20002,74125,6,,,{F6F55C3D-4B74-4487-E053-782F520AA253},,,,
-76.9718640844419,38.8966561586594,10724644,S0261,Parking Enforcement,PEMA- Parking Enforcement Management Administration,DPW,1,2023/03/15 18:07:38+00,2023/03/15 23:31:56+00,2023/03/16 18:07:38+00,2023/03/15 18:07:38+00,,,,Closed,,23-00125388,Standard,518 25TH PLACE NE,402440.93,136533.62,38.8966487,-76.97186181,WASHINGTON,DC,20002,11979,7,,,{F6F55C3D-4B78-4487-E053-782F520AA253},,,,
-77.028316753959,38.9730640823452,10724650,S0261,Parking Enforcement,PEMA- Parking Enforcement Management Administration,DPW,1,2023/03/15 18:16:40+00,2023/03/15 19:30:37+00,2023/03/16 18:16:40+00,2023/03/15 18:16:40+00,,,,Closed,,23-00125412,Standard,6803 CAMERON DRIVE NW,397546.41,145015.57,38.97305628,-77.02831446,WASHINGTON,DC,20012,319481,4,,,{F6F591E2-445C-497B-E053-782F520AA85A},,,,
-77.0042850459787,38.9274860991153,10724668,S0261,Parking Enforcement,PEMA- Parking Enforcement Management Administration,DPW,1,2023/03/15 18:33:15+00,2023/03/15 21:21:14+00,2023/03/16 18:33:15+00,2023/03/15 18:33:15+00,,,,Closed,,23-00125468,Standard,125 MICHIGAN AVENUE NE,399628.64,139955.63,38.92747864,-77.00428276,WASHINGTON,DC,20017,285983,5,,,{F6F5C78E-2B79-236E-E053-782F520A3E5C},,,,
-77.0240502324596,38.9192007306218,10724673,S0261,Parking Enforcement,PEMA- Parking Enforcement Management Administration,DPW,1,2023/03/15 18:35:27+00,2023/03/15 23:41:31+00,2023/03/16 18:35:27+00,2023/03/15 18:35:27+00,,,,Closed,,23-00125477,Standard,901 W STREET NW,397914.55,139036.15,38.91919294,-77.02404794,WASHINGTON,DC,20001,316871,1,,,{F6F5C78E-2B7E-236E-E053-782F520A3E5C},,,,
-76.9734437127935,38.9177319210988,10724675,S0261,Parking Enforcement,PEMA- Parking Enforcement Management Administration,DPW,1,2023/03/15 18:38:55+00,2023/03/15 19:36:13+00,2023/03/16 18:38:55+00,2023/03/15 18:38:55+00,,,,Closed,,23-00125486,Standard,2228 NEW YORK AVENUE NE,402303.22,138873.16,38.91772413,-76.97344144,WASHINGTON,DC,20002,286743,5,,,{F6F5C78E-2B80-236E-E053-782F520A3E5C},,,,
-76.9808198315722,38.9017010333273,10724680,S0261,Parking Enforcement,PEMA- Parking Enforcement Management Administration,DPW,1,2023/03/15 18:41:48+00,2023/03/15 20:32:30+00,2023/03/16 18:41:48+00,2023/03/15 18:41:48+00,,,,Closed,,23-00125505,Standard,1600 MARYLAND AVENUE NE,401663.92,137093.44,38.90169358,-76.98081755,WASHINGTON,DC,20002,307668,5,,,{F6F5C78E-2B85-236E-E053-782F520A3E5C},,,,
-76.9639077328532,38.8681016126484,10724686,S0261,Parking Enforcement,PEMA- Parking Enforcement Management Administration,DPW,1,2023/03/15 19:03:56+00,2023/03/15 23:18:54+00,2023/03/16 19:03:56+00,2023/03/15 19:03:56+00,,,,Closed,,23-00125581,Standard,1725- 1799 BLOCK OF 31ST STREET SE,403132.38,133364.090007,38.86809383,-76.96390546,WASHINGTON,DC,20020,808179,7,,,{F6F632D9-1AF3-53D1-E053-782F520A5B17},,,,
-76.98025349991,38.8627419104721,10724689,S0261,Parking Enforcement,PEMA- Parking Enforcement Management Administration,DPW,1,2023/03/15 19:08:36+00,2023/03/15 23:15:14+00,2023/03/16 19:08:36+00,2023/03/15 19:08:36+00,,,,Closed,,23-00125588,Standard,1679 W STREET SE,401713.98,132768.69,38.86273446,-76.98025122,WASHINGTON,DC,20020,58054,8,,,{F6F632D9-1AF6-53D1-E053-782F520A5B17},,,,
-76.9959420246735,38.880226031222,10724703,S0261,Parking Enforcement,PEMA- Parking Enforcement Management Administration,DPW,1,2023/03/15 19:18:38+00,2023/03/15 22:43:37+00,2023/03/16 19:18:38+00,2023/03/15 19:18:38+00,,,,Closed,,23-00125616,Standard,732 7TH STREET SE,400352.3,134709.38,38.88021858,-76.99593974,WASHINGTON,DC,20003,78340,6,,,{F6F66874-B234-2B0F-E053-782F520ACC5B},,,,
-77.0165909755671,38.9399931205908,10725025,S0336,Out of State Parking Violation (ROSA),PEMA- Parking Enforcement Management Administration,DPW,1,2023/03/15 04:02:07+00,2023/03/15 07:46:04+00,2023/04/26 04:02:07+00,2023/03/15 04:02:07+00,,,,Closed,,23-00123998,Standard,317  - 399 BLOCK OF SHEPHERD STREET NW,398561.83999999,141344.140007,38.93998533,-77.01658868,WASHINGTON,DC,20011,805380,4,,,{F6E9A028-B21A-6EFF-E053-792F520A4A86},,,,
-76.9875161079394,38.8926805136513,10725028,S0336,Out of State Parking Violation (ROSA),PEMA- Parking Enforcement Management Administration,DPW,1,2023/03/15 04:18:56+00,2023/03/15 07:21:33+00,2023/04/26 04:18:56+00,2023/03/15 04:18:56+00,,,,Closed,,23-00124001,Standard,219 TENNESSEE AVENUE NE,401083.21,136091.99,38.89267306,-76.98751383,WASHINGTON,DC,20002,50846,6,,,{F6E9D5C9-2D36-6C5A-E053-792F520A8C5A},,,,
-76.952503346245,38.8615674199409,10725031,S0336,Out of State Parking Violation (ROSA),PEMA- Parking Enforcement Management Administration,DPW,1,2023/03/15 07:23:51+00,2023/03/15 08:41:36+00,2023/04/27 07:23:51+00,2023/03/15 07:23:51+00,,,,Closed,,23-00124018,Standard,3744 CAMDEN STREET SE,404122.46,132639.2,38.86155964,-76.95250108,WASHINGTON,DC,20020,30916,7,,,{F6EC5987-3213-0AC1-E053-792F520AA373},,,,
-76.952503346245,38.8615674199409,10725032,S0336,Out of State Parking Violation (ROSA),PEMA- Parking Enforcement Management Administration,DPW,1,2023/03/15 07:25:03+00,2023/03/15 08:41:36+00,2023/04/27 07:25:03+00,2023/03/15 07:25:03+00,,,,Closed (Duplicate),,23-00124019,Standard,3744 CAMDEN STREET SE,404122.46,132639.2,38.86155964,-76.95250108,WASHINGTON,DC,20020,30916,7,,,{F6EC5987-3214-0AC1-E053-792F520AA373},,,,
-76.952503346245,38.8615674199409,10725033,S0336,Out of State Parking Violation (ROSA),PEMA- Parking Enforcement Management Administration,DPW,1,2023/03/15 07:26:53+00,2023/03/15 08:41:36+00,2023/04/27 07:26:53+00,2023/03/15 07:26:53+00,,,,Closed (Duplicate),,23-00124021,Standard,3744 CAMDEN STREET SE,404122.46,132639.2,38.86155964,-76.95250108,WASHINGTON,DC,20020,30916,7,,,{F6EC5987-3215-0AC1-E053-792F520AA373},,,,
-77.0751557633954,38.9343705757137,10725037,S0261,Parking Enforcement,PEMA- Parking Enforcement Management Administration,DPW,1,2023/03/15 10:34:16+00,2023/03/15 11:57:04+00,2023/03/16 10:34:16+00,2023/03/15 10:34:16+00,,,,Closed,,23-00124031,Standard,3318 IDAHO AVENUE NW,393484.04,140722.54,38.93436278,-77.07515345,WASHINGTON,DC,20016,327632,3,,,{F6EF12F1-7578-7DAB-E053-792F520ABC59},,,,
-77.0327588999732,38.900875280568,10725347,S0261,Parking Enforcement,PEMA- Parking Enforcement Management Administration,DPW,1,2023/03/15 10:49:59+00,2023/03/15 12:42:04+00,2023/03/16 10:49:59+00,2023/03/15 10:49:59+00,,,,Closed,,23-00124037,Standard,1412 I STREET NW,397158.6,137002.11,38.90086783,-77.03275661,WASHINGTON,DC,20005,279140,2,,,{F6EF488E-1490-38AE-E053-792F520AC2D7},,,,
-77.0001947076799,38.906730169353,10725355,S0261,Parking Enforcement,PEMA- Parking Enforcement Management Administration,DPW,1,2023/03/15 11:25:12+00,2023/03/15 13:02:53+00,2023/03/16 11:25:12+00,2023/03/15 11:25:12+00,,,,Closed,,23-00124053,Standard,1227 4TH STREET NE,399983.31,137651.54,38.90672238,-77.00019242,WASHINGTON,DC,20002,306605,6,,,{F6EFB3E2-4BE6-06D4-E053-792F520A40A2},,,,
-77.0479716612248,38.9177962563416,10725356,S0261,Parking Enforcement,PEMA- Parking Enforcement Management Administration,DPW,1,2023/03/15 11:25:25+00,2023/03/15 12:59:17+00,2023/03/16 11:25:25+00,2023/03/15 11:25:25+00,,,,Closed,,23-00124054,Standard,2107 WYOMING AVENUE NW,395839.99,138881.06,38.9177888,-77.04796936,WASHINGTON,DC,20008,234983,2,,,{F6EFB3E2-4BE7-06D4-E053-792F520A40A2},,,,
-77.004968465258,38.9059077815944,10725364,S0261,Parking Enforcement,PEMA- Parking Enforcement Management Administration,DPW,1,2023/03/15 11:40:18+00,2023/03/15 13:01:58+00,2023/03/16 11:40:18+00,2023/03/15 11:40:18+00,,,,Closed,,23-00124066,Standard,130 M STREET NE,399569.25,137560.26,38.90590033,-77.00496618,WASHINGTON,DC,20002,303694,6,,,{F6EFE980-447D-237E-E053-792F520A18F0},,,,
-77.0236661026902,38.9187864259006,10725367,S0261,Parking Enforcement,PEMA- Parking Enforcement Management Administration,DPW,1,2023/03/15 11:43:36+00,2023/03/15 12:30:04+00,2023/03/16 11:43:36+00,2023/03/15 11:43:36+00,,,,Closed,,23-00124068,Standard,2131 9TH STREET NW,397947.85,138990.15,38.91877863,-77.02366381,WASHINGTON,DC,20001,284242,1,,,{F6F01F23-9111-3DA6-E053-792F520A08B5},,,,
-77.026478065562,38.9286071452109,10725370,S0261,Parking Enforcement,PEMA- Parking Enforcement Management Administration,DPW,1,2023/03/15 11:46:51+00,2023/03/15 12:28:56+00,2023/03/16 11:46:51+00,2023/03/15 11:46:51+00,,,,Closed,,23-00124073,Standard,3028 SHERMAN AVENUE NW,397704.31,140080.4,38.92859969,-77.02647577,WASHINGTON,DC,20001,231250,1,,,{F6F01F23-9114-3DA6-E053-792F520A08B5},,,,
-77.012410728789,38.9156534441106,10725372,S0261,Parking Enforcement,PEMA- Parking Enforcement Management Administration,DPW,1,2023/03/15 11:48:27+00,2023/03/15 13:08:56+00,2023/03/16 11:48:27+00,2023/03/15 11:48:27+00,,,,Closed,,23-00124075,Standard,100 - 115 BLOCK OF RHODE ISLAND AVENUE NW,398923.88,138642.170007,38.91564565,-77.01240844,WASHINGTON,DC,20001,803964,5,,,{F6F01F23-9116-3DA6-E053-792F520A08B5},,,,
-76.9911196344127,38.8606484243031,10725373,S0261,Parking Enforcement,PEMA- Parking Enforcement Management Administration,DPW,1,2023/03/15 11:50:01+00,2023/03/15 13:04:02+00,2023/03/16 11:50:01+00,2023/03/15 11:50:01+00,,,,Closed,,23-00124076,Standard,1300 - 1367 BLOCK OF TALBERT TERRACE SE,400770.94,132536.150007,38.86064064,-76.99111736,WASHINGTON,DC,20020,807710,8,,,{F6F01F23-9117-3DA6-E053-792F520A08B5},,,,
-76.9974999432729,38.9239075967543,10725374,S0261,Parking Enforcement,PEMA- Parking Enforcement Management Administration,DPW,1,2023/03/15 11:50:55+00,2023/03/15 13:35:19+00,2023/03/16 11:50:55+00,2023/03/15 11:50:55+00,,,,Closed,,23-00124077,Standard,601 EDGEWOOD STREET NE,400216.99,139558.38,38.92390014,-76.99749766,WASHINGTON,DC,20017,289571,5,,,{F6F01F23-9118-3DA6-E053-792F520A08B5},,,,
-77.0077791326704,38.9247104561554,10725375,S0261,Parking Enforcement,PEMA- Parking Enforcement Management Administration,DPW,1,2023/03/15 11:51:55+00,2023/03/15 13:07:48+00,2023/03/16 11:51:55+00,2023/03/15 11:51:55+00,,,,Closed,,23-00124078,Standard,26 EVARTS STREET NE,399325.64,139647.53,38.924703,-77.00777685,WASHINGTON,DC,20002,46107,5,,,{F6F01F23-9119-3DA6-E053-792F520A08B5},,,,
-77.0712278847214,38.9592497732341,10725378,S0261,Parking Enforcement,PEMA- Parking Enforcement Management Administration,DPW,1,2023/03/15 11:53:25+00,2023/03/15 12:27:35+00,2023/03/16 11:53:25+00,2023/03/15 11:53:25+00,,,,Closed,,23-00124081,Standard,3721 JENIFER STREET NW,393826.75,143484.08,38.95924231,-77.07122558,WASHINGTON,DC,20015,275278,3,,,{F6F01F23-911C-3DA6-E053-792F520A08B5},,,,
-76.9260804231106,38.8920549528339,10725380,S0261,Parking Enforcement,PEMA- Parking Enforcement Management Administration,DPW,1,2023/03/15 11:55:51+00,2023/03/15 12:14:33+00,2023/03/16 11:55:51+00,2023/03/15 11:55:51+00,,,,Closed,,23-00124083,Standard,204 53RD STREET NE,406412.98,136025.07,38.8920475,-76.92607816,WASHINGTON,DC,20019,52365,7,,,{F6F01F23-911E-3DA6-E053-792F520A08B5},,,,
-77.0195626444978,38.8933146322864,10725383,S0261,Parking Enforcement,PEMA- Parking Enforcement Management Administration,DPW,1,2023/03/15 11:58:18+00,2023/03/15 14:16:38+00,2023/03/16 11:58:18+00,2023/03/15 11:58:18+00,,,,Closed,,23-00124087,Standard,565 PENNSYLVANIA AVENUE NW,398303.1,136162.49,38.89330718,-77.01956036,WASHINGTON,DC,20001,305117,6,,,{F6F01F23-9121-3DA6-E053-792F520A08B5},,,,
-77.0082876081516,38.9536616396817,10725387,S0261,Parking Enforcement,PEMA- Parking Enforcement Management Administration,DPW,1,2023/03/15 12:03:08+00,2023/03/15 13:16:36+00,2023/03/16 12:03:08+00,2023/03/15 12:03:08+00,,,,Closed,,23-00124091,Standard,12 HAMILTON STREET NE,399281.84,142861.37,38.95365418,-77.00828532,WASHINGTON,DC,20011,72420,5,,,{F6F054CF-123F-4DCF-E053-792F520A351C},,,,
-77.0058287594423,38.9128251599252,10725389,S0261,Parking Enforcement,PEMA- Parking Enforcement Management Administration,DPW,1,2023/03/15 12:05:03+00,2023/03/15 13:38:34+00,2023/03/16 12:05:03+00,2023/03/15 12:05:03+00,,,,Closed,,23-00124095,Standard,116 R STREET NE,399494.68,138328.15,38.91281737,-77.00582647,WASHINGTON,DC,20002,72553,5,,,{F6F054CF-1241-4DCF-E053-792F520A351C},,,,
-77.0056178690347,38.9128022890767,10725392,S0261,Parking Enforcement,PEMA- Parking Enforcement Management Administration,DPW,1,2023/03/15 12:06:32+00,2023/03/15 13:39:24+00,2023/03/16 12:06:32+00,2023/03/15 12:06:32+00,,,,Closed,,23-00124100,Standard,122 R STREET NE,399512.97,138325.61,38.91279483,-77.00561558,WASHINGTON,DC,20002,71080,5,,,{F6F054CF-1244-4DCF-E053-792F520A351C},,,,
-77.0061392699205,38.9128292878536,10725393,S0261,Parking Enforcement,PEMA- Parking Enforcement Management Administration,DPW,1,2023/03/15 12:08:38+00,2023/03/15 13:40:00+00,2023/03/16 12:08:38+00,2023/03/15 12:08:38+00,,,,Closed,,23-00124101,Standard,108 R STREET NE,399467.75,138328.61,38.9128215,-77.00613698,WASHINGTON,DC,20002,74630,5,,,{F6F054CF-1245-4DCF-E053-792F520A351C},,,,
-76.9696393151764,38.8696784539456,10725395,S0261,Parking Enforcement,PEMA- Parking Enforcement Management Administration,DPW,1,2023/03/15 12:09:38+00,2023/03/15 14:36:57+00,2023/03/16 12:09:38+00,2023/03/15 12:09:38+00,,,,Closed,,23-00124103,Standard,2620 R STREET SE,402634.92,133538.95,38.86967101,-76.96963704,WASHINGTON,DC,20020,156235,7,,,{F6F054CF-1247-4DCF-E053-792F520A351C},,,,
-77.0443795489254,38.9173169912305,10725397,S0261,Parking Enforcement,PEMA- Parking Enforcement Management Administration,DPW,1,2023/03/15 12:12:38+00,2023/03/15 13:08:21+00,2023/03/16 12:12:38+00,2023/03/15 12:12:38+00,,,,Closed,,23-00124109,Standard,2020 19TH STREET NW,396151.48,138827.7,38.91730954,-77.04437725,WASHINGTON,DC,20009,294534,1,,,{F6F054CF-1249-4DCF-E053-792F520A351C},,,,
-76.9992462783511,38.8768039003105,10725407,S0261,Parking Enforcement,PEMA- Parking Enforcement Management Administration,DPW,1,2023/03/15 12:19:50+00,2023/03/15 15:26:33+00,2023/03/16 12:19:50+00,2023/03/15 12:19:50+00,,,,Closed,,23-00124125,Standard,1150 5TH STREET SE,400065.6,134329.49,38.87679645,-76.999244,WASHINGTON,DC,20003,294508,8,,,{F6F08A74-2648-5B87-E053-792F520A4684},,,,
-77.0310488277285,38.9112990402116,10725421,S0261,Parking Enforcement,PEMA- Parking Enforcement Management Administration,DPW,1,2023/03/15 12:44:16+00,2023/03/15 14:14:10+00,2023/03/16 12:44:16+00,2023/03/15 12:44:16+00,,,,Closed,,23-00124191,Standard,1335 Q STREET NW,397307.33,138159.18,38.91129159,-77.03104653,WASHINGTON,DC,20009,240573,2,,,{F6F0F5D1-D65A-106D-E053-792F520A76A7},,,,
-76.9919593558886,38.8595381069748,10725422,S0261,Parking Enforcement,PEMA- Parking Enforcement Management Administration,DPW,1,2023/03/15 12:45:50+00,2023/03/15 13:30:05+00,2023/03/16 12:45:50+00,2023/03/15 12:45:50+00,,,,Closed,,23-00124195,Standard,2620 BOWEN ROAD SE,400698.07,132412.89,38.85953066,-76.99195708,WASHINGTON,DC,20020,307502,8,,,{F6F0F5D1-D65B-106D-E053-792F520A76A7},,,,
-77.0109668553578,38.9164292962218,10725429,S0261,Parking Enforcement,PEMA- Parking Enforcement Management Administration,DPW,1,2023/03/15 12:50:00+00,2023/03/15 13:32:32+00,2023/03/16 12:50:00+00,2023/03/15 12:50:00+00,,,,Closed,,23-00124207,Standard,51 RHODE ISLAND AVENUE NW,399049.11,138728.28,38.91642184,-77.01096457,WASHINGTON,DC,20001,227370,5,,,{F6F0F5D1-D662-106D-E053-792F520A76A7},,,,
-77.0469772707727,38.9031671991346,10725435,S0261,Parking Enforcement,PEMA- Parking Enforcement Management Administration,DPW,1,2023/03/15 12:56:03+00,2023/03/15 14:39:06+00,2023/03/16 12:56:03+00,2023/03/15 12:56:03+00,,,,Closed,,23-00124225,Standard,1050 21ST STREET NW,395925.39,137257.07,38.90315941,-77.04697497,WASHINGTON,DC,20036,294506,2,,,{F6F0F5D1-D668-106D-E053-792F520A76A7},,,,
-76.9826382366821,38.8987786453418,10725437,S0261,Parking Enforcement,PEMA- Parking Enforcement Management Administration,DPW,1,2023/03/15 12:56:45+00,2023/03/15 13:06:03+00,2023/03/16 12:56:45+00,2023/03/15 12:56:45+00,,,,Closed,,23-00124227,Standard,1516 GALES STREET NE,401506.25,136769,38.89877119,-76.98263596,WASHINGTON,DC,20002,61732,7,,,{F6F0F5D1-D66A-106D-E053-792F520A76A7},,,,
-77.0438715225682,38.9053686072207,10725445,S0261,Parking Enforcement,PEMA- Parking Enforcement Management Administration,DPW,1,2023/03/15 12:59:36+00,2023/03/15 13:05:07+00,2023/03/16 12:59:36+00,2023/03/15 12:59:36+00,,,,Closed,,23-00124239,Standard,1900 M STREET NW,396194.9,137501.31,38.90536115,-77.04386923,WASHINGTON,DC,20036,243290,2,,,{F6F12B62-B4F1-1C31-E053-792F520A8F61},,,,
-77.0334682790157,38.9473981924815,10725447,S0261,Parking Enforcement,PEMA- Parking Enforcement Management Administration,DPW,1,2023/03/15 13:00:44+00,2023/03/15 14:19:13+00,2023/03/16 13:00:44+00,2023/03/15 13:00:44+00,,,,Closed,,23-00124242,Standard,1407 CRITTENDEN STREET NW,397098.96,142166.57,38.94739073,-77.03346598,WASHINGTON,DC,20011,255649,4,,,{F6F12B62-B4F3-1C31-E053-792F520A8F61},,,,
-77.0449985870039,38.918133900303,10725451,S0261,Parking Enforcement,PEMA- Parking Enforcement Management Administration,DPW,1,2023/03/15 13:04:04+00,2023/03/15 13:06:44+00,2023/03/16 13:04:03+00,2023/03/15 13:04:04+00,,,,Closed,,23-00124251,Standard,1930 COLUMBIA ROAD NW,396097.84,138918.41,38.91812644,-77.04499629,WASHINGTON,DC,20009,284153,1,,,{F6F12B62-B4F7-1C31-E053-792F520A8F61},,,,
-77.0361185811428,38.9085721982934,10725454,S0261,Parking Enforcement,PEMA- Parking Enforcement Management Administration,DPW,1,2023/03/15 13:05:40+00,2023/03/15 16:55:29+00,2023/03/16 13:05:40+00,2023/03/15 13:05:40+00,,,,Closed,,23-00124256,Standard,1333 16TH STREET NW,396867.51,137856.64,38.90856474,-77.03611629,WASHINGTON,DC,20036,242315,2,,,{F6F12B62-B4FA-1C31-E053-792F520A8F61},,,,
-76.9837440346237,38.9011662902074,10725456,S0261,Parking Enforcement,PEMA- Parking Enforcement Management Administration,DPW,1,2023/03/15 13:06:20+00,2023/03/15 14:30:57+00,2023/03/16 13:06:19+00,2023/03/15 13:06:20+00,,,,Closed,,23-00124260,Standard,1400 - 1499 BLOCK OF MORSE STREET NE,401410.27999999,137034.03000701,38.9011585,-76.98374176,WASHINGTON,DC,20002,814917,5,,,{F6F12B62-B4FC-1C31-E053-792F520A8F61},,,,
-76.9445925306609,38.8983797881983,10725457,S0261,Parking Enforcement,PEMA- Parking Enforcement Management Administration,DPW,1,2023/03/15 13:08:36+00,2023/03/15 14:16:13+00,2023/03/16 13:08:36+00,2023/03/15 13:08:36+00,,,,Closed,,23-00124265,Standard,4000 - 4199 BLOCK OF GRANT STREET NE,404806.56387441,136726.03875532,38.898372,-76.94459027,WASHINGTON,DC,20019,801547,7,,,{F6F12B62-B4FD-1C31-E053-792F520A8F61},,,,
-76.9818073543152,38.9202599083365,10725458,S0261,Parking Enforcement,PEMA- Parking Enforcement Management Administration,DPW,1,2023/03/15 13:08:40+00,2023/03/15 15:55:44+00,2023/03/16 13:08:40+00,2023/03/15 13:08:40+00,,,,Closed,,23-00124266,Standard,1500 - 1599 BLOCK OF ADAMS STREET NE,401577.84999999,139153.610007,38.92025212,-76.98180508,WASHINGTON,DC,20018,809451,5,,,{F6F12B62-B4FE-1C31-E053-792F520A8F61},,,,
-77.0321381166789,38.9211279193991,10725459,S0261,Parking Enforcement,PEMA- Parking Enforcement Management Administration,DPW,1,2023/03/15 13:08:45+00,2023/03/15 15:35:42+00,2023/03/16 13:08:45+00,2023/03/15 13:08:45+00,,,,Closed,,23-00124267,Standard,2420 14TH STREET NW,397213.24,139250.3,38.92112046,-77.03213582,WASHINGTON,DC,20009,310291,1,,,{F6F12B62-B4FF-1C31-E053-792F520A8F61},,,,
-76.9810815690195,38.9198046023092,10725461,S0261,Parking Enforcement,PEMA- Parking Enforcement Management Administration,DPW,1,2023/03/15 13:09:14+00,2023/03/15 14:24:24+00,2023/03/16 13:09:14+00,2023/03/15 13:09:14+00,,,,Closed,,23-00124270,Standard,2200 - 2299 BLOCK OF 16TH STREET NE,401640.79999999,139103.08000701,38.91979681,-76.98107929,WASHINGTON,DC,20018,810856,5,,,{F6F12B62-B501-1C31-E053-792F520A8F61},,,,
-76.9818073543152,38.9202599083365,10725464,S0261,Parking Enforcement,PEMA- Parking Enforcement Management Administration,DPW,1,2023/03/15 13:10:10+00,2023/03/15 14:25:23+00,2023/03/16 13:10:10+00,2023/03/15 13:10:10+00,,,,Closed,,23-00124275,Standard,1500 - 1599 BLOCK OF ADAMS STREET NE,401577.84999999,139153.610007,38.92025212,-76.98180508,WASHINGTON,DC,20018,809451,5,,,{F6F12B62-B504-1C31-E053-792F520A8F61},,,,
-76.9848086151082,38.9155516823275,10725468,S0261,Parking Enforcement,PEMA- Parking Enforcement Management Administration,DPW,1,2023/03/15 13:13:02+00,2023/03/15 15:40:22+00,2023/03/16 13:13:02+00,2023/03/15 13:13:02+00,,,,Closed,,23-00124286,Standard,1401 NEW YORK AVENUE NE,401317.67,138630.91,38.91554389,-76.98480634,WASHINGTON,DC,20002,286132,5,,,{F6F12B62-B508-1C31-E053-792F520A8F61},,,,
-77.0383734235009,38.9338625353236,10725469,S0261,Parking Enforcement,PEMA- Parking Enforcement Management Administration,DPW,1,2023/03/15 13:13:25+00,2023/03/15 15:10:31+00,2023/03/16 13:13:25+00,2023/03/15 13:13:25+00,,,,Closed,,23-00124288,Standard,1648 NEWTON STREET NW,396673.12,140664.16,38.93385508,-77.03837113,WASHINGTON,DC,20010,233636,1,,,{F6F12B62-B509-1C31-E053-792F520A8F61},,,,
-77.032152119277,38.9212373667087,10725472,S0261,Parking Enforcement,PEMA- Parking Enforcement Management Administration,DPW,1,2023/03/15 13:14:00+00,2023/03/15 15:38:06+00,2023/03/16 13:14:00+00,2023/03/15 13:14:00+00,,,,Closed,,23-00124293,Standard,2424 14TH STREET NW,397212.03,139262.45,38.92122991,-77.03214982,WASHINGTON,DC,20009,310292,1,,,{F6F12B62-B50C-1C31-E053-792F520A8F61},,,,
-77.034533697988,38.9175651624428,10725476,S0261,Parking Enforcement,PEMA- Parking Enforcement Management Administration,DPW,1,2023/03/15 13:16:45+00,2023/03/15 15:06:45+00,2023/03/16 13:16:45+00,2023/03/15 13:16:45+00,,,,Closed,,23-00124300,Standard,2000 - 2099 BLOCK OF 15TH STREET NW,397005.34999999,138854.880007,38.91755737,-77.0345314,WASHINGTON,DC,20009,809144,1,,,{F6F16105-7725-593A-E053-792F520AC11E},,,,
-77.0345832208581,38.9186291218046,10725482,S0261,Parking Enforcement,PEMA- Parking Enforcement Management Administration,DPW,1,2023/03/15 13:18:36+00,2023/03/15 15:07:39+00,2023/03/16 13:18:35+00,2023/03/15 13:18:36+00,,,,Closed,,23-00124314,Standard,2100 - 2199 BLOCK OF 15TH STREET NW,397001.09999999,138972.990007,38.91862133,-77.03458093,WASHINGTON,DC,20009,810132,1,,,{F6F16105-772B-593A-E053-792F520AC11E},,,,
-77.0350142387531,38.9181214640824,10725483,S0261,Parking Enforcement,PEMA- Parking Enforcement Management Administration,DPW,1,2023/03/15 13:21:01+00,2023/03/15 15:39:02+00,2023/03/16 13:21:01+00,2023/03/15 13:21:01+00,,,,Closed,,23-00124324,Standard,1500 - 1509 BLOCK OF V STREET NW,396963.7,138916.650007,38.91811367,-77.03501194,WASHINGTON,DC,20009,811809,1,,,{F6F16105-772C-593A-E053-792F520AC11E},,,,
-77.0296229755588,38.9175640783649,10725488,S0261,Parking Enforcement,PEMA- Parking Enforcement Management Administration,DPW,1,2023/03/15 13:22:50+00,2023/03/15 15:05:47+00,2023/03/16 13:22:50+00,2023/03/15 13:22:50+00,,,,Closed,,23-00124331,Standard,2000 - 2099 BLOCK OF 13TH STREET NW,397431.22,138854.610007,38.91755629,-77.02962068,WASHINGTON,DC,20009,804964,1,,,{F6F16105-7731-593A-E053-792F520AC11E},,,,
-77.0448995250484,38.9056647265784,10725489,S0261,Parking Enforcement,PEMA- Parking Enforcement Management Administration,DPW,1,2023/03/15 13:23:37+00,2023/03/15 13:30:39+00,2023/03/16 13:23:37+00,2023/03/15 13:23:37+00,,,,Closed,,23-00124334,Standard,20TH STREET NW AND M STREET NW,396105.75001034,137534.22452335,38.90565693,-77.04489723,WASHINGTON,DC,20036,907393,2,,,{F6F16105-7732-593A-E053-792F520AC11E},,,,
-77.0288546567997,38.9181194540977,10725492,S0261,Parking Enforcement,PEMA- Parking Enforcement Management Administration,DPW,1,2023/03/15 13:24:44+00,2023/03/15 15:04:46+00,2023/03/16 13:24:44+00,2023/03/15 13:24:44+00,,,,Closed,,23-00124337,Standard,1200 - 1299 BLOCK OF V STREET NW,397497.87,138916.24000701,38.91811166,-77.02885236,WASHINGTON,DC,20009,802899,1,,,{F6F16105-7735-593A-E053-792F520AC11E},,,,
-76.9978791407463,38.9231221686845,10725495,S0261,Parking Enforcement,PEMA- Parking Enforcement Management Administration,DPW,1,2023/03/15 13:25:51+00,2023/03/15 15:45:13+00,2023/03/16 13:25:51+00,2023/03/15 13:25:51+00,,,,Closed,,23-00124340,Standard,611 EDGEWOOD STREET NE,400184.11,139471.19,38.92311471,-76.99787686,WASHINGTON,DC,20017,289572,5,,,{F6F16105-7738-593A-E053-792F520AC11E},,,,
-76.9958279582412,38.9250525966076,10725497,S0261,Parking Enforcement,PEMA- Parking Enforcement Management Administration,DPW,1,2023/03/15 13:26:39+00,2023/03/15 16:00:37+00,2023/03/16 13:26:39+00,2023/03/15 13:26:39+00,,,,Closed,,23-00124343,Standard,703 EDGEWOOD STREET NE,400361.97,139685.49,38.9250448,-76.99582567,WASHINGTON,DC,20017,289580,5,,,{F6F16105-773A-593A-E053-792F520AC11E},,,,
-76.9976525505242,38.9087241437515,10725498,S0261,Parking Enforcement,PEMA- Parking Enforcement Management Administration,DPW,1,2023/03/15 13:27:51+00,2023/03/15 15:18:04+00,2023/03/16 13:27:51+00,2023/03/15 13:27:51+00,,,,Closed,,23-00124350,Standard,1309 5TH STREET NE,400203.8,137872.89,38.90871669,-76.99765027,WASHINGTON,DC,20002,301991,5,,,{F6F16105-773B-593A-E053-792F520AC11E},,,,
-77.0336440766041,38.8987899176765,10725499,S0261,Parking Enforcement,PEMA- Parking Enforcement Management Administration,DPW,1,2023/03/15 13:33:50+00,2023/03/15 14:32:08+00,2023/03/16 13:33:50+00,2023/03/15 13:33:50+00,,,,Closed,,23-00124373,Standard,15TH STREET NW AND NEW YORK AVENUE NW,397081.73151524,136770.64605864,38.89878213,-77.03364179,WASHINGTON,DC,20005,901414,2,,,{F6F196AB-2D16-4558-E053-792F520A082F},,,,
-76.992395962484,38.8980041578589,10725500,S0261,Parking Enforcement,PEMA- Parking Enforcement Management Administration,DPW,1,2023/03/15 13:34:18+00,2023/03/15 14:15:12+00,2023/03/16 13:34:18+00,2023/03/15 13:34:18+00,,,,Closed,,23-00124375,Standard,623 10TH STREET NE,400659.82,136682.91,38.8979967,-76.99239368,WASHINGTON,DC,20002,3373,6,,,{F6F196AB-2D17-4558-E053-792F520A082F},,,,
-76.9876357368376,38.9067741969167,10725505,S0261,Parking Enforcement,PEMA- Parking Enforcement Management Administration,DPW,1,2023/03/15 13:35:29+00,2023/03/15 16:02:45+00,2023/03/16 13:35:29+00,2023/03/15 13:35:29+00,,,,Closed,,23-00124382,Standard,1504 MONTELLO AVENUE NE,401072.62,137656.5,38.90676674,-76.98763346,WASHINGTON,DC,20002,62495,5,,,{F6F196AB-2D1C-4558-E053-792F520A082F},,,,
-76.9982767650579,38.903875500271,10725506,S0261,Parking Enforcement,PEMA- Parking Enforcement Management Administration,DPW,1,2023/03/15 13:36:23+00,2023/03/15 14:34:37+00,2023/03/16 13:36:23+00,2023/03/15 13:36:23+00,,,,Closed,,23-00124384,Standard,1101 6TH STREET NE,400149.67,137334.65,38.90386771,-76.99827448,WASHINGTON,DC,20002,74386,6,,,{F6F196AB-2D1D-4558-E053-792F520A082F},,,,
-77.0719014374492,38.9142799189621,10725511,S0261,Parking Enforcement,PEMA- Parking Enforcement Management Administration,DPW,1,2023/03/15 13:38:28+00,2023/03/15 13:41:01+00,2023/03/16 13:38:28+00,2023/03/15 13:38:28+00,,,,Closed,,23-00124396,Standard,3618 S STREET NW,393764.44,138492.08,38.91427213,-77.07189913,WASHINGTON,DC,20007,270452,2,,,{F6F196AB-2D22-4558-E053-792F520A082F},,,,
-77.0441537396261,38.914098578611,10725515,S0261,Parking Enforcement,PEMA- Parking Enforcement Management Administration,DPW,1,2023/03/15 13:40:11+00,2023/03/15 17:35:39+00,2023/03/16 13:40:11+00,2023/03/15 13:40:11+00,,,,Closed,,23-00124410,Standard,1900 - 1999 BLOCK OF S STREET NW,396170.89,138470.420007,38.91409079,-77.04415144,WASHINGTON,DC,20009,812842,2,,,{F6F196AB-2D26-4558-E053-792F520A082F},,,,
-77.0463719004292,38.9068944670091,10725521,S0261,Parking Enforcement,PEMA- Parking Enforcement Management Administration,DPW,1,2023/03/15 13:43:17+00,2023/03/15 17:09:45+00,2023/03/16 13:43:17+00,2023/03/15 13:43:17+00,,,,Closed,,23-00124418,Standard,1266 NEW HAMPSHIRE AVENUE NW,395978.11,137670.8,38.90688701,-77.0463696,WASHINGTON,DC,20036,242560,2,,,{F6F196AB-2D2C-4558-E053-792F520A082F},,,,
-77.0243602394355,38.9051571136094,10725523,S0261,Parking Enforcement,PEMA- Parking Enforcement Management Administration,DPW,1,2023/03/15 13:29:50+00,2023/03/15 14:03:05+00,2023/03/16 13:29:50+00,2023/03/15 13:29:50+00,,,,Closed,,23-00124355,Standard,1124 9TH STREET NW,397887.25,137477.2,38.90514966,-77.02435795,WASHINGTON,DC,20001,239794,2,,,{F6F196AB-2D2E-4558-E053-792F520A082F},,,,
-77.0601915125684,38.9376371828615,10725525,S0261,Parking Enforcement,PEMA- Parking Enforcement Management Administration,DPW,1,2023/03/15 13:30:50+00,2023/03/15 15:30:05+00,2023/03/16 13:30:50+00,2023/03/15 13:30:50+00,,,,Closed,,23-00124362,Standard,3620 CONNECTICUT AVENUE NW,394781.71,141084.2,38.93762972,-77.06018921,WASHINGTON,DC,20008,220665,3,,,{F6F196AB-2D30-4558-E053-792F520A082F},,,,
-76.9320931021907,38.895920041737,10725526,S0261,Parking Enforcement,PEMA- Parking Enforcement Management Administration,DPW,1,2023/03/15 13:31:29+00,2023/03/15 14:38:18+00,2023/03/16 13:31:29+00,2023/03/15 13:31:29+00,,,,Closed,,23-00124363,Standard,500 - 549 BLOCK OF 49TH PLACE NE,405891.03999999,136453.720007,38.89591225,-76.93209084,WASHINGTON,DC,20019,805897,7,,,{F6F196AB-2D31-4558-E053-792F520A082F},,,,
-76.9836425014894,38.9025354562853,10725528,S0261,Parking Enforcement,PEMA- Parking Enforcement Management Administration,DPW,1,2023/03/15 13:44:17+00,2023/03/15 15:41:33+00,2023/03/16 13:44:17+00,2023/03/15 13:44:17+00,,,,Closed,,23-00124424,Standard,1500 NEAL STREET NE,401419.06,137186.02,38.902528,-76.98364022,WASHINGTON,DC,20002,62561,5,,,{F6F1CC50-2007-0C0D-E053-792F520A0D36},,,,
-76.9421937928046,38.8930367621866,10725529,S0261,Parking Enforcement,PEMA- Parking Enforcement Management Administration,DPW,1,2023/03/15 13:44:26+00,2023/03/15 14:21:58+00,2023/03/16 13:44:26+00,2023/03/15 13:44:26+00,,,,Closed,,23-00124425,Standard,4208 BENNING ROAD NE,405015.02,136133.05,38.89302931,-76.94219153,WASHINGTON,DC,20019,25469,7,,,{F6F1CC50-2008-0C0D-E053-792F520A0D36},,,,
-77.0330029250631,38.9070398990966,10725535,S0261,Parking Enforcement,PEMA- Parking Enforcement Management Administration,DPW,1,2023/03/15 13:49:33+00,2023/03/15 17:37:14+00,2023/03/16 13:49:33+00,2023/03/15 13:49:33+00,,,,Closed,,23-00124441,Standard,1420 N STREET NW,397137.68,137686.44,38.90703211,-77.03300063,WASHINGTON,DC,20005,226615,2,,,{F6F1CC50-200E-0C0D-E053-792F520A0D36},,,,
-76.974429742917,38.918993307286,10725536,S0261,Parking Enforcement,PEMA- Parking Enforcement Management Administration,DPW,1,2023/03/15 13:50:06+00,2023/03/15 14:43:43+00,2023/03/16 13:50:06+00,2023/03/15 13:50:06+00,,,,Closed,,23-00124443,Standard,2215 ADAMS PLACE NE,402217.67,139013.16,38.91898551,-76.97442747,WASHINGTON,DC,20018,50269,5,,,{F6F1CC50-200F-0C0D-E053-792F520A0D36},,,,
-77.002749161158,38.8745129444351,10725538,S0261,Parking Enforcement,PEMA- Parking Enforcement Management Administration,DPW,1,2023/03/15 13:52:09+00,2023/03/15 15:33:37+00,2023/03/16 13:52:09+00,2023/03/15 13:52:09+00,,,,Closed,,23-00124450,Standard,3 TINGEY SQUARE SE,399761.64,134075.18,38.87450516,-77.00274688,WASHINGTON,DC,20003,331891,8,,,{F6F1CC50-2011-0C0D-E053-792F520A0D36},,,,
-76.9208681267331,38.8933523476202,10725541,S0261,Parking Enforcement,PEMA- Parking Enforcement Management Administration,DPW,1,2023/03/15 13:53:10+00,2023/03/15 15:48:24+00,2023/03/16 13:53:09+00,2023/03/15 13:53:10+00,,,,Closed,,23-00124454,Standard,307 56TH STREET NE,406865.04,136169.47,38.89334489,-76.92086587,WASHINGTON,DC,20019,287464,7,,,{F6F1CC50-2014-0C0D-E053-792F520A0D36},,,,
-77.0177540762308,38.9119852797958,10725544,S0261,Parking Enforcement,PEMA- Parking Enforcement Management Administration,DPW,1,2023/03/15 13:56:10+00,2023/03/15 15:38:38+00,2023/03/16 13:56:10+00,2023/03/15 13:56:10+00,,,,Closed,,23-00124466,Standard,409 WARNER STREET NW,398460.4,138235.05,38.91197782,-77.01775179,WASHINGTON,DC,20001,237304,2,,,{F6F1CC50-2017-0C0D-E053-792F520A0D36},,,,
-77.0299990514576,38.9245329136511,10725545,S0336,Out of State Parking Violation (ROSA),PEMA- Parking Enforcement Management Administration,DPW,1,2023/03/15 13:56:34+00,2023/03/16 07:00:24+00,2023/04/27 13:56:34+00,2023/03/15 13:56:34+00,,,,Closed,,23-00124469,Standard,1302 FAIRMONT STREET NW,397398.86,139628.22,38.92452546,-77.02999676,WASHINGTON,DC,20009,231658,1,,,{F6F1CC50-2018-0C0D-E053-792F520A0D36},,,,
-77.0091832956066,38.916769406512,10725547,S0261,Parking Enforcement,PEMA- Parking Enforcement Management Administration,DPW,1,2023/03/15 13:57:21+00,2023/03/15 14:46:01+00,2023/03/16 13:57:21+00,2023/03/15 13:57:21+00,,,,Closed,,23-00124471,Standard,RHODE ISLAND AVENUE NW AND NORTH CAPITOL STREET NW,399203.79089999,138766.01760629,38.91676161,-77.00918101,WASHINGTON,DC,20001,913873,5,,,{F6F1CC50-201A-0C0D-E053-792F520A0D36},,,,
-77.0201783779777,38.9139381644626,10725551,S0261,Parking Enforcement,PEMA- Parking Enforcement Management Administration,DPW,1,2023/03/15 13:58:17+00,2023/03/15 16:18:37+00,2023/03/16 13:58:17+00,2023/03/15 13:58:17+00,,,,Closed,,23-00124477,Standard,1742 6TH STREET NW,398250.19,138451.88,38.91393037,-77.02017609,WASHINGTON,DC,20001,238462,2,,,{F6F1CC50-201E-0C0D-E053-792F520A0D36},,,,
-77.0042081824547,38.9109093356016,10725552,S0261,Parking Enforcement,PEMA- Parking Enforcement Management Administration,DPW,1,2023/03/15 13:58:34+00,2023/03/15 17:56:46+00,2023/03/16 13:58:34+00,2023/03/15 13:58:34+00,,,,Closed,,23-00124479,Standard,151 Q STREET NE,399635.22,138115.47,38.91090155,-77.0042059,WASHINGTON,DC,20002,307165,5,,,{F6F1CC50-201F-0C0D-E053-792F520A0D36},,,,
-77.0587799613133,38.9086954175678,10725553,S0261,Parking Enforcement,PEMA- Parking Enforcement Management Administration,DPW,1,2023/03/15 13:59:07+00,2023/03/15 15:00:05+00,2023/03/16 13:59:07+00,2023/03/15 13:59:07+00,,,,Closed,,23-00124480,Standard,2915 O STREET NW,394902.02,137871.34,38.90868796,-77.05877766,WASHINGTON,DC,20007,223754,2,,,{F6F1CC50-2020-0C0D-E053-792F520A0D36},,,,
-77.0211591947952,38.8759780774746,10725557,S0261,Parking Enforcement,PEMA- Parking Enforcement Management Administration,DPW,1,2023/03/15 14:00:41+00,2023/03/15 15:09:08+00,2023/03/16 14:00:41+00,2023/03/15 14:00:41+00,,,,Closed,,23-00124489,Standard,610 WATER STREET SW,398164.15,134238.03,38.87597029,-77.02115691,WASHINGTON,DC,20024,320432,6,,,{F6F201F5-D60D-68DE-E053-792F520ABB39},,,,
-77.0109339506749,38.9146530358204,10725558,S0261,Parking Enforcement,PEMA- Parking Enforcement Management Administration,DPW,1,2023/03/15 14:02:31+00,2023/03/15 15:36:06+00,2023/03/16 14:02:31+00,2023/03/15 14:02:31+00,,,,Closed,,23-00124493,Standard,56 SEATON PLACE NW,399051.94,138531.1,38.91464558,-77.01093166,WASHINGTON,DC,20001,227131,5,,,{F6F201F5-D60E-68DE-E053-792F520ABB39},,,,
-76.9859409885344,38.9012180129376,10725560,S0261,Parking Enforcement,PEMA- Parking Enforcement Management Administration,DPW,1,2023/03/15 14:05:05+00,2023/03/15 15:42:33+00,2023/03/16 14:05:05+00,2023/03/15 14:05:05+00,,,,Closed,,23-00124502,Standard,1102 STAPLES STREET NE,401219.71,137039.74,38.90121056,-76.98593871,WASHINGTON,DC,20002,74435,5,,,{F6F201F5-D610-68DE-E053-792F520ABB39},,,,
-77.0136763426002,38.9096485236958,10725566,S0261,Parking Enforcement,PEMA- Parking Enforcement Management Administration,DPW,1,2023/03/15 14:08:05+00,2023/03/15 16:05:27+00,2023/03/16 14:08:05+00,2023/03/15 14:08:05+00,,,,Closed,,23-00124516,Standard,100 - 299 BLOCK OF P STREET NW,398814.01999999,137975.59000701,38.90964073,-77.01367405,WASHINGTON,DC,20001,813275,5,,,{F6F201F5-D616-68DE-E053-792F520ABB39},,,,
-76.9819338949768,38.8946064941058,10725570,S0261,Parking Enforcement,PEMA- Parking Enforcement Management Administration,DPW,1,2023/03/15 14:09:13+00,2023/03/15 15:35:41+00,2023/03/16 14:09:13+00,2023/03/15 14:09:13+00,,,,Closed,,23-00124521,Standard,1605 D STREET NE,401567.44,136305.87,38.89459904,-76.98193162,WASHINGTON,DC,20002,60291,7,,,{F6F201F5-D61A-68DE-E053-792F520ABB39},,,,
-77.0076961497089,38.907002418465,10725571,S0261,Parking Enforcement,PEMA- Parking Enforcement Management Administration,DPW,1,2023/03/15 14:10:45+00,2023/03/15 15:01:20+00,2023/03/16 14:10:45+00,2023/03/15 14:10:45+00,,,,Closed,,23-00124524,Standard,33 N STREET NE,399332.67,137681.79,38.90699463,-77.00769386,WASHINGTON,DC,20002,37300,6,,,{F6F201F5-D61B-68DE-E053-792F520ABB39},,,,
-76.9871211053143,38.8931634996681,10725573,S0261,Parking Enforcement,PEMA- Parking Enforcement Management Administration,DPW,1,2023/03/15 14:11:41+00,2023/03/15 16:06:15+00,2023/03/16 14:11:41+00,2023/03/15 14:11:41+00,,,,Closed,,23-00124527,Standard,251 TENNESSEE AVENUE NE,401117.47,136145.61,38.89315605,-76.98711883,WASHINGTON,DC,20002,46624,6,,,{F6F201F5-D61D-68DE-E053-792F520ABB39},,,,
-76.9988666573612,38.9280475704278,10725598,S0261,Parking Enforcement,PEMA- Parking Enforcement Management Administration,DPW,1,2023/03/15 14:22:48+00,2023/03/15 16:06:10+00,2023/03/16 14:22:48+00,2023/03/15 14:22:48+00,,,,Closed,,23-00124572,Standard,3025 4TH STREET NE,400098.47,140017.95,38.92804011,-76.99886437,WASHINGTON,DC,20017,302681,5,,,{F6F23799-DB6D-71F7-E053-792F520A3614},,,,
-76.9693034886876,38.9300474443423,10725602,S0336,Out of State Parking Violation (ROSA),PEMA- Parking Enforcement Management Administration,DPW,1,2023/03/15 14:24:24+00,2023/03/16 06:41:08+00,2023/04/27 14:24:24+00,2023/03/15 14:24:24+00,,,,Closed,,23-00124577,Standard,2609 MYRTLE AVENUE NE,402661.81,140240.4,38.93003998,-76.96930121,WASHINGTON,DC,20018,45839,5,,,{F6F23799-DB71-71F7-E053-792F520A3614},,,,
-77.0075770344639,38.835226876863,10725607,S0261,Parking Enforcement,PEMA- Parking Enforcement Management Administration,DPW,1,2023/03/15 14:28:31+00,2023/03/15 14:57:04+00,2023/03/16 14:28:31+00,2023/03/15 14:28:31+00,,,,Closed,,23-00124589,Standard,3800 SOUTH CAPITOL STREET SE,399342.34,129714.17,38.83521944,-77.00757475,WASHINGTON,DC,20032,150759,8,,,{F6F23799-DB76-71F7-E053-792F520A3614},,,,
-76.98962926218,38.9464589966862,10725624,S0261,Parking Enforcement,PEMA- Parking Enforcement Management Administration,DPW,1,2023/03/15 14:36:20+00,2023/03/15 16:35:34+00,2023/03/16 14:36:20+00,2023/03/15 14:36:20+00,,,,Closed,,23-00124632,Standard,1212 BUCHANAN STREET NE,400899.21,142061.83,38.94645153,-76.98962698,WASHINGTON,DC,20017,71729,5,,,{F6F26D41-0C87-2D2B-E053-792F520A12E9},,,,
-77.0284627160947,38.9062799779637,10725626,S0261,Parking Enforcement,PEMA- Parking Enforcement Management Administration,DPW,1,2023/03/15 14:37:31+00,2023/03/15 15:48:05+00,2023/03/16 14:37:31+00,2023/03/15 14:37:31+00,,,,Closed,,23-00124637,Standard,1220 12TH STREET NW,397531.45,137601.95,38.90627252,-77.02846042,WASHINGTON,DC,20005,240913,2,,,{F6F26D41-0C89-2D2B-E053-792F520A12E9},,,,
-77.002749161158,38.8745129444351,10725642,S0261,Parking Enforcement,PEMA- Parking Enforcement Management Administration,DPW,1,2023/03/15 15:18:10+00,2023/03/15 15:54:39+00,2023/03/16 15:18:10+00,2023/03/15 15:18:10+00,,,,Closed,,23-00124799,Standard,3 TINGEY SQUARE SE,399761.64,134075.18,38.87450516,-77.00274688,WASHINGTON,DC,20003,331891,8,,,{F6F30E30-26A1-3894-E053-792F520AD3E7},,,,
-76.9844701795139,38.8997061338682,10725652,S0261,Parking Enforcement,PEMA- Parking Enforcement Management Administration,DPW,1,2023/03/15 15:22:03+00,2023/03/15 16:33:13+00,2023/03/16 15:22:03+00,2023/03/15 15:22:03+00,,,,Closed,,23-00124816,Standard,1400 - 1499 BLOCK OF MARYLAND AVENUE NE,401347.31999999,136871.93000701,38.89969835,-76.9844679,WASHINGTON,DC,20002,803537,6,,,{F6F30E30-26AB-3894-E053-792F520AD3E7},,,,
-76.9896888283538,38.8823530680543,10725654,S0261,Parking Enforcement,PEMA- Parking Enforcement Management Administration,DPW,1,2023/03/15 15:22:06+00,2023/03/15 16:34:26+00,2023/03/16 15:22:05+00,2023/03/15 15:22:06+00,,,,Closed,,23-00124818,Standard,1208 PENNSYLVANIA AVENUE SE,400894.85,134945.54,38.88234562,-76.98968655,WASHINGTON,DC,20003,71927,6,,,{F6F30E30-26AD-3894-E053-792F520AD3E7},,,,
-77.0438710590257,38.9061144989424,10725658,S0261,Parking Enforcement,PEMA- Parking Enforcement Management Administration,DPW,1,2023/03/15 15:23:45+00,2023/03/15 16:46:06+00,2023/03/16 15:23:45+00,2023/03/15 15:23:45+00,,,,Closed,,23-00124826,Standard,1200 19TH STREET NW,396194.98,137584.11,38.90610705,-77.04386876,WASHINGTON,DC,20036,241069,2,,,{F6F30E30-26B1-3894-E053-792F520AD3E7},,,,
-76.9868048987392,38.9213132023372,10725661,S0261,Parking Enforcement,PEMA- Parking Enforcement Management Administration,DPW,1,2023/03/15 15:24:39+00,2023/03/15 16:54:13+00,2023/03/16 15:24:39+00,2023/03/15 15:24:39+00,,,,Closed,,23-00124830,Standard,1360 BRYANT STREET NE,401144.45,139270.46,38.92130574,-76.98680262,WASHINGTON,DC,20018,65770,5,,,{F6F30E30-26B4-3894-E053-792F520AD3E7},,,,
-76.9895891385442,38.8823227910274,10725668,S0261,Parking Enforcement,PEMA- Parking Enforcement Management Administration,DPW,1,2023/03/15 15:27:10+00,2023/03/15 16:33:43+00,2023/03/16 15:27:10+00,2023/03/15 15:27:10+00,,,,Closed,,23-00124843,Standard,1212 PENNSYLVANIA AVENUE SE,400903.5,134942.18,38.88231534,-76.98958686,WASHINGTON,DC,20003,71538,6,,,{F6F30E30-26BB-3894-E053-792F520AD3E7},,,,
-77.0375402973734,38.9585216308103,10725672,S0261,Parking Enforcement,PEMA- Parking Enforcement Management Administration,DPW,1,2023/03/15 15:30:50+00,2023/03/15 16:03:04+00,2023/03/16 15:30:50+00,2023/03/15 15:30:50+00,,,,Closed,,23-00124853,Standard,1600  - 1699 BLOCK OF MADISON STREET NW,396746.47999999,143401.510007,38.95851383,-77.037538,WASHINGTON,DC,20011,800181,4,,,{F6F343D5-3AB2-54BF-E053-792F520A8DD3},,,,
-76.9895041508759,38.8826350141573,10725674,S0261,Parking Enforcement,PEMA- Parking Enforcement Management Administration,DPW,1,2023/03/15 15:32:21+00,2023/03/15 16:25:46+00,2023/03/16 15:32:21+00,2023/03/15 15:32:21+00,,,,Closed,,23-00124856,Standard,1217 E STREET SE,400910.87,134976.84,38.88262756,-76.98950187,WASHINGTON,DC,20003,71344,6,,,{F6F343D5-3AB4-54BF-E053-792F520A8DD3},,,,
-77.0159648171426,38.9119267135342,10725676,S0261,Parking Enforcement,PEMA- Parking Enforcement Management Administration,DPW,1,2023/03/15 15:33:36+00,2023/03/15 16:30:05+00,2023/03/16 15:33:36+00,2023/03/15 15:33:36+00,,,,Closed,,23-00124860,Standard,1627 4TH STREET NW,398615.58,138228.52,38.91191926,-77.01596253,WASHINGTON,DC,20001,237624,5,,,{F6F343D5-3AB6-54BF-E053-792F520A8DD3},,,,
-77.0381046596433,38.908990275374,10725678,S0261,Parking Enforcement,PEMA- Parking Enforcement Management Administration,DPW,1,2023/03/15 15:35:00+00,2023/03/15 16:08:18+00,2023/03/16 15:35:00+00,2023/03/15 15:35:00+00,,,,Canceled,,23-00124864,Standard,1401 17TH STREET NW,396695.27,137903.12,38.90898249,-77.03810236,WASHINGTON,DC,20036,225446,2,,,{F6F343D5-3AB8-54BF-E053-792F520A8DD3},,,,
-76.9898286663262,38.8659301344824,10725688,S0261,Parking Enforcement,PEMA- Parking Enforcement Management Administration,DPW,1,2023/03/15 15:42:26+00,2023/03/15 16:03:07+00,2023/03/16 15:42:26+00,2023/03/15 15:42:26+00,,,,Closed,,23-00124886,Standard,2041 MARTIN LUTHER KING JR AVENUE SE,400882.92,133122.47,38.86592269,-76.98982639,WASHINGTON,DC,20020,278056,8,,,{F6F343D5-3AC2-54BF-E053-792F520A8DD3},,,,
-77.0316048585126,38.9197447461084,10725689,S0261,Parking Enforcement,PEMA- Parking Enforcement Management Administration,DPW,1,2023/03/15 15:43:08+00,2023/03/15 16:51:58+00,2023/03/16 15:43:08+00,2023/03/15 15:43:08+00,,,,Closed,,23-00124887,Standard,2213 14TH STREET NW,397259.43,139096.74,38.91973696,-77.03160256,WASHINGTON,DC,20009,284282,1,,,{F6F343D5-3AC3-54BF-E053-792F520A8DD3},,,,
-77.0642883106266,38.9098090110266,10725694,S0261,Parking Enforcement,PEMA- Parking Enforcement Management Administration,DPW,1,2023/03/15 16:01:08+00,2023/03/15 16:54:04+00,2023/03/16 16:01:08+00,2023/03/15 16:01:08+00,,,,Closed,,23-00124947,Standard,1519 WISCONSIN AVENUE NW,394424.35,137995.28,38.90980156,-77.06428601,WASHINGTON,DC,20007,223936,2,,,{F6F3AF1C-1118-5B74-E053-792F520A6855},,,,
-76.9749641775613,38.8691738046567,10725696,S0261,Parking Enforcement,PEMA- Parking Enforcement Management Administration,DPW,1,2023/03/15 16:01:30+00,2023/03/15 17:23:43+00,2023/03/16 16:01:30+00,2023/03/15 16:01:30+00,,,,Closed,,23-00124949,Standard,1700 - 1713 BLOCK OF 22ND STREET SE,402172.84,133482.790007,38.86916602,-76.9749619,WASHINGTON,DC,20020,812024,8,,,{F6F3AF1C-111A-5B74-E053-792F520A6855},,,,
-77.0316342241797,38.9160168203193,10725700,S0261,Parking Enforcement,PEMA- Parking Enforcement Management Administration,DPW,1,2023/03/15 16:02:22+00,2023/03/15 16:49:40+00,2023/03/16 16:02:22+00,2023/03/15 16:02:22+00,,,,Closed,,23-00124954,Standard,1919 14TH STREET NW,397256.74,138682.91,38.91600936,-77.03163193,WASHINGTON,DC,20009,279478,1,,,{F6F3AF1C-111E-5B74-E053-792F520A6855},,,,
-77.0223440302827,38.9338217476829,10725709,S0261,Parking Enforcement,PEMA- Parking Enforcement Management Administration,DPW,1,2023/03/15 16:07:17+00,2023/03/15 17:14:06+00,2023/03/16 16:07:17+00,2023/03/15 16:07:17+00,,,,Closed,,23-00124974,Standard,606 NEWTON PLACE NW,398062.91,140659.17,38.93381429,-77.02234174,WASHINGTON,DC,20010,226405,1,,,{F6F3AF1C-1127-5B74-E053-792F520A6855},,,,
-77.0222879783407,38.9338270732855,10725714,S0261,Parking Enforcement,PEMA- Parking Enforcement Management Administration,DPW,1,2023/03/15 16:09:26+00,2023/03/15 17:14:44+00,2023/03/16 16:09:25+00,2023/03/15 16:09:26+00,,,,Closed,,23-00124982,Standard,604 NEWTON PLACE NW,398067.77,140659.76,38.93381961,-77.02228569,WASHINGTON,DC,20010,226368,1,,,{F6F3AF1C-112C-5B74-E053-792F520A6855},,,,
-77.1013646763082,38.9243551552583,10725717,S0261,Parking Enforcement,PEMA- Parking Enforcement Management Administration,DPW,1,2023/03/15 16:11:18+00,2023/03/15 17:10:37+00,2023/03/16 16:11:18+00,2023/03/15 16:11:18+00,,,,Closed,,23-00124990,Standard,5060 MACARTHUR BOULEVARD NW,391210.44,139612.94,38.92434737,-77.10136236,WASHINGTON,DC,20016,275283,3,,,{F6F3AF1C-112F-5B74-E053-792F520A6855},,,,
-77.0211959589226,38.962881949633,10725721,S0336,Out of State Parking Violation (ROSA),PEMA- Parking Enforcement Management Administration,DPW,1,2023/03/15 16:13:24+00,2023/03/16 06:41:53+00,2023/04/27 16:13:23+00,2023/03/15 16:13:24+00,,,,Closed,,23-00124998,Standard,521 PEABODY STREET NW,398163.2,143885.09,38.96287448,-77.02119367,WASHINGTON,DC,20011,246359,4,,,{F6F3AF1C-1133-5B74-E053-792F520A6855},,,,
-77.0689469921285,38.9113151625637,10725723,S0336,Out of State Parking Violation (ROSA),PEMA- Parking Enforcement Management Administration,DPW,1,2023/03/15 16:13:40+00,2023/03/16 06:43:32+00,2023/04/27 16:13:40+00,2023/03/15 16:13:40+00,,,,Closed,,23-00125000,Standard,1619 35TH STREET NW,394020.42,138162.77,38.91130737,-77.06894469,WASHINGTON,DC,20007,272826,2,,,{F6F3AF1C-1135-5B74-E053-792F520A6855},,,,
-77.0256490539131,38.9817348466689,10725727,S0261,Parking Enforcement,PEMA- Parking Enforcement Management Administration,DPW,1,2023/03/15 16:31:50+00,2023/03/15 18:05:26+00,2023/03/16 16:31:50+00,2023/03/15 16:31:50+00,,,,Closed,,23-00125056,Standard,7506 9TH STREET NW,397777.85,145978.04,38.98172738,-77.02564676,WASHINGTON,DC,20012,253711,4,,,{F6F41A66-10ED-050B-E053-792F520ABEB2},,,,
-76.9924468442326,38.8845213273515,10725728,S0261,Parking Enforcement,PEMA- Parking Enforcement Management Administration,DPW,1,2023/03/15 16:32:41+00,2023/03/15 18:36:05+00,2023/03/16 16:32:41+00,2023/03/15 16:32:41+00,,,,Closed,,23-00125057,Standard,340 10TH STREET SE,400655.53,135186.21,38.88451388,-76.99244456,WASHINGTON,DC,20003,287852,6,,,{F6F41A66-10EE-050B-E053-792F520ABEB2},,,,
-77.0284627160947,38.9062799779637,10725730,S0261,Parking Enforcement,PEMA- Parking Enforcement Management Administration,DPW,1,2023/03/15 16:33:46+00,2023/03/15 17:00:36+00,2023/03/16 16:33:46+00,2023/03/15 16:33:46+00,,,,Closed,,23-00125060,Standard,1220 12TH STREET NW,397531.45,137601.95,38.90627252,-77.02846042,WASHINGTON,DC,20005,240913,2,,,{F6F41A66-10F0-050B-E053-792F520ABEB2},,,,
-77.0623610505668,38.9057880976894,10725734,S0261,Parking Enforcement,PEMA- Parking Enforcement Management Administration,DPW,1,2023/03/15 16:35:30+00,2023/03/15 17:06:06+00,2023/03/16 16:35:29+00,2023/03/15 16:35:30+00,,,,Closed,,23-00125064,Standard,1225 WISCONSIN AVENUE NW,394591.2,137548.81,38.90578064,-77.06235875,WASHINGTON,DC,20007,272015,2,,,{F6F41A66-10F4-050B-E053-792F520ABEB2},,,,
-77.002749161158,38.8745129444351,10725736,S0261,Parking Enforcement,PEMA- Parking Enforcement Management Administration,DPW,1,2023/03/15 16:35:50+00,2023/03/15 16:41:03+00,2023/03/16 16:35:50+00,2023/03/15 16:35:50+00,,,,Closed,,23-00125066,Standard,3 TINGEY SQUARE SE,399761.64,134075.18,38.87450516,-77.00274688,WASHINGTON,DC,20003,331891,8,,,{F6F41A66-10F6-050B-E053-792F520ABEB2},,,,
-76.9848086151082,38.9155516823275,10725737,S0261,Parking Enforcement,PEMA- Parking Enforcement Management Administration,DPW,1,2023/03/15 16:36:50+00,2023/03/15 17:09:05+00,2023/03/16 16:36:49+00,2023/03/15 16:36:50+00,,,,Closed,,23-00125070,Standard,1401 NEW YORK AVENUE NE,401317.67,138630.91,38.91554389,-76.98480634,WASHINGTON,DC,20002,286132,5,,,{F6F41A66-10F7-050B-E053-792F520ABEB2},,,,
-77.0055801937685,38.9116957964387,10725744,S0261,Parking Enforcement,PEMA- Parking Enforcement Management Administration,DPW,1,2023/03/15 16:39:31+00,2023/03/15 17:33:05+00,2023/03/16 16:39:31+00,2023/03/15 16:39:31+00,,,,Closed,,23-00125080,Standard,123 QUINCY PLACE NE,399516.23,138202.78,38.91168834,-77.00557791,WASHINGTON,DC,20002,70523,5,,,{F6F41A66-10FE-050B-E053-792F520ABEB2},,,,
-77.062379086871,38.9086146382612,10725752,S0261,Parking Enforcement,PEMA- Parking Enforcement Management Administration,DPW,1,2023/03/15 16:42:31+00,2023/03/15 17:14:40+00,2023/03/16 16:42:31+00,2023/03/15 16:42:31+00,,,,Closed,,23-00125096,Standard,3129 O STREET NW,394589.85,137862.58,38.90860718,-77.06237678,WASHINGTON,DC,20007,223793,2,,,{F6F41A66-1106-050B-E053-792F520ABEB2},,,,
-77.0201764488091,38.8993762576107,10725755,S0261,Parking Enforcement,PEMA- Parking Enforcement Management Administration,DPW,1,2023/03/15 16:36:10+00,2023/03/15 17:34:16+00,2023/03/16 16:36:10+00,2023/03/15 16:36:10+00,,,,Closed,,23-00125069,Standard,736 6TH STREET NW,398250,136835.39,38.8993688,-77.02017416,WASHINGTON,DC,20001,302335,2,,,{F6F4500B-21BC-1793-E053-792F520ADC89},,,,
-77.0196449007022,38.9048624376713,10725756,S0261,Parking Enforcement,PEMA- Parking Enforcement Management Administration,DPW,1,2023/03/15 16:44:08+00,2023/03/15 17:15:46+00,2023/03/16 16:44:08+00,2023/03/15 16:44:08+00,,,,Closed,,23-00125100,Standard,1117 6TH STREET NW,398296.24,137444.39,38.90485498,-77.01964261,WASHINGTON,DC,20001,238888,2,,,{F6F4500B-21BD-1793-E053-792F520ADC89},,,,
-77.0345257556052,38.9497473072396,10725768,S0261,Parking Enforcement,PEMA- Parking Enforcement Management Administration,DPW,1,2023/03/15 16:47:50+00,2023/03/15 17:32:22+00,2023/03/16 16:47:50+00,2023/03/15 16:47:50+00,,,,Closed,,23-00125113,Standard,15TH STREET NW AND EMERSON STREET NW,397007.39001117,142427.37700789,38.94973951,-77.03452346,WASHINGTON,DC,20011,901136,4,,,{F6F4500B-21C9-1793-E053-792F520ADC89},,,,
-76.9622066459979,38.876910095871,10725776,S0261,Parking Enforcement,PEMA- Parking Enforcement Management Administration,DPW,1,2023/03/15 16:51:53+00,2023/03/15 17:27:07+00,2023/03/16 16:51:52+00,2023/03/15 16:51:53+00,,,,Closed,,23-00125125,Standard,3100 - 3199 BLOCK OF LYNDALE PLACE SE,403279.59955299,134341.9568651,38.87690231,-76.96220438,WASHINGTON,DC,20019,803593,7,,,{F6F4500B-21D1-1793-E053-792F520ADC89},,,,
-77.0327977886425,38.963387336251,10725787,S0261,Parking Enforcement,PEMA- Parking Enforcement Management Administration,DPW,1,2023/03/15 16:56:11+00,2023/03/15 17:57:10+00,2023/03/16 16:56:11+00,2023/03/15 16:56:11+00,,,,Closed,,23-00125147,Standard,1371 PEABODY STREET NW,397157.72,143941.49,38.96337987,-77.03279549,WASHINGTON,DC,20011,258185,4,,,{F6F4500B-21DC-1793-E053-792F520ADC89},,,,
-77.0020430380473,38.8850805868554,10725797,S0261,Parking Enforcement,PEMA- Parking Enforcement Management Administration,DPW,1,2023/03/15 17:02:44+00,2023/03/15 17:27:47+00,2023/03/16 17:02:44+00,2023/03/15 17:02:44+00,,,,Closed,,23-00125164,Standard,3RD STREET SE AND D STREET SE,399822.93999778,135248.26701723,38.8850728,-77.00204075,WASHINGTON,DC,20003,903074,6,,,{F6F485B6-5E31-0771-E053-792F520A87E4},,,,
-77.0243444639584,38.9302087465273,10725808,S0261,Parking Enforcement,PEMA- Parking Enforcement Management Administration,DPW,1,2023/03/15 17:07:30+00,2023/03/15 23:24:48+00,2023/03/16 17:07:30+00,2023/03/15 17:07:30+00,,,,Closed,,23-00125179,Standard,717 KENYON STREET NW,397889.36,140258.14,38.93020095,-77.02434217,WASHINGTON,DC,20010,232964,1,,,{F6F485B6-5E3C-0771-E053-792F520A87E4},,,,
-77.0374460599117,38.9043288472353,10725811,S0261,Parking Enforcement,PEMA- Parking Enforcement Management Administration,DPW,1,2023/03/15 17:09:13+00,2023/03/15 20:04:12+00,2023/03/16 17:09:13+00,2023/03/15 17:09:13+00,,,,Closed,,23-00125187,Standard,1615 L STREET NW,396752.18,137385.64,38.90432106,-77.03744376,WASHINGTON,DC,20036,242027,2,,,{F6F485B6-5E3F-0771-E053-792F520A87E4},,,,
-76.985116745146,38.8922004467064,10725813,S0261,Parking Enforcement,PEMA- Parking Enforcement Management Administration,DPW,1,2023/03/15 17:09:58+00,2023/03/15 17:39:54+00,2023/03/16 17:09:58+00,2023/03/15 17:09:58+00,,,,Closed,,23-00125189,Standard,1406 CONSTITUTION AVENUE NE,401291.37,136038.73,38.89219299,-76.98511447,WASHINGTON,DC,20002,65045,6,,,{F6F485B6-5E41-0771-E053-792F520A87E4},,,,
-76.9868048987392,38.9213132023372,10725816,S0261,Parking Enforcement,PEMA- Parking Enforcement Management Administration,DPW,1,2023/03/15 17:10:43+00,2023/03/15 17:44:34+00,2023/03/16 17:10:43+00,2023/03/15 17:10:43+00,,,,Closed,,23-00125193,Standard,1360 BRYANT STREET NE,401144.45,139270.46,38.92130574,-76.98680262,WASHINGTON,DC,20018,65770,5,,,{F6F485B6-5E44-0771-E053-792F520A87E4},,,,
-76.9768569445545,38.9002034866341,10725822,S0261,Parking Enforcement,PEMA- Parking Enforcement Management Administration,DPW,1,2023/03/15 17:15:40+00,2023/03/15 17:51:15+00,2023/03/16 17:15:40+00,2023/03/15 17:15:40+00,,,,Closed,,23-00125215,Standard,1800 - 1899 BLOCK OF H STREET NE,402007.70999999,136927.280007,38.9001957,-76.97685467,WASHINGTON,DC,20002,807556,5,,,{F6F4BB56-DD10-58BB-E053-792F520A3B33},,,,
-77.032373153731,38.9079697368871,10725829,S0261,Parking Enforcement,PEMA- Parking Enforcement Management Administration,DPW,1,2023/03/15 17:24:33+00,2023/03/15 17:42:09+00,2023/03/16 17:24:33+00,2023/03/15 17:24:33+00,,,,Closed,,23-00125240,Standard,1320 14TH STREET NW,397192.34,137789.64,38.90796228,-77.03237086,WASHINGTON,DC,20005,240241,2,,,{F6F4BB56-DD17-58BB-E053-792F520A3B33},,,,
-77.0443795489254,38.9173169912305,10725840,S0261,Parking Enforcement,PEMA- Parking Enforcement Management Administration,DPW,1,2023/03/15 18:47:13+00,2023/03/15 21:06:26+00,2023/03/16 18:47:13+00,2023/03/15 18:47:13+00,,,,Closed,,23-00125524,Standard,2020 19TH STREET NW,396151.48,138827.7,38.91730954,-77.04437725,WASHINGTON,DC,20009,294534,1,,,{F6F5FD3C-C65D-3370-E053-792F520A19C2},,,,
-77.0035444188381,38.9089141895668,10725987,S0261,Parking Enforcement,PEMA- Parking Enforcement Management Administration,DPW,1,2023/03/15 18:48:23+00,2023/03/15 19:58:29+00,2023/03/16 18:48:23+00,2023/03/15 18:48:23+00,,,,Closed,,23-00125529,Standard,100 FLORIDA AVENUE NE,399692.78,137893.99,38.9089064,-77.00354213,WASHINGTON,DC,20002,306456,5,,,{F6F5FD3C-C660-3370-E053-792F520A19C2},,,,
-76.9325331338718,38.9000374802949,10725990,S0261,Parking Enforcement,PEMA- Parking Enforcement Management Administration,DPW,1,2023/03/15 18:51:01+00,2023/03/15 21:13:18+00,2023/03/16 18:51:01+00,2023/03/15 18:51:01+00,,,,Closed,,23-00125541,Standard,807 48TH PLACE NE,405852.53,136910.76,38.90003002,-76.93253087,WASHINGTON,DC,20019,79848,7,,,{F6F5FD3C-C663-3370-E053-792F520A19C2},,,,
-77.0527939583746,38.901444209019,10725993,S0261,Parking Enforcement,PEMA- Parking Enforcement Management Administration,DPW,1,2023/03/15 18:52:40+00,2023/03/15 19:47:31+00,2023/03/16 18:52:40+00,2023/03/15 18:52:40+00,,,,Closed,,23-00125545,Standard,925 25TH STREET NW,395420.74,137066.08,38.90143642,-77.05279166,WASHINGTON,DC,20037,274004,2,,,{F6F5FD3C-C666-3370-E053-792F520A19C2},,,,
-76.9852989019302,38.8864542960341,10726016,S0261,Parking Enforcement,PEMA- Parking Enforcement Management Administration,DPW,1,2023/03/15 19:36:02+00,2023/03/15 21:34:18+00,2023/03/16 19:36:02+00,2023/03/15 19:36:02+00,,,,Closed,,23-00125687,Standard,1401 SOUTH CAROLINA AVENUE SE,401275.67,135400.86,38.88644684,-76.98529662,WASHINGTON,DC,20003,65132,6,,,{F6F69E23-D5A7-59E9-E053-792F520A9A32},,,,
-77.0416807948276,38.9206026924968,10726026,S0261,Parking Enforcement,PEMA- Parking Enforcement Management Administration,DPW,1,2023/03/15 20:05:58+00,2023/03/15 22:05:09+00,2023/03/16 20:05:58+00,2023/03/15 20:05:58+00,,,,Closed,,23-00125784,Standard,2337 18TH STREET NW,396385.69,139192.33,38.92059524,-77.0416785,WASHINGTON,DC,20009,235586,1,,,{F6F70968-5BFC-20C8-E053-792F520A2FBF},,,,
-77.0080615621333,38.9257844988499,10726028,S0261,Parking Enforcement,PEMA- Parking Enforcement Management Administration,DPW,1,2023/03/15 20:06:51+00,2023/03/15 20:09:46+00,2023/03/16 20:06:51+00,2023/03/15 20:06:51+00,,,,Closed,,23-00125788,Standard,11 GIRARD STREET NE,399301.16,139766.76,38.92577704,-77.00805927,WASHINGTON,DC,20002,74730,5,,,{F6F70968-5BFE-20C8-E053-792F520A2FBF},,,,
-76.9824570676987,38.8938823909965,10726035,S0261,Parking Enforcement,PEMA- Parking Enforcement Management Administration,DPW,1,2023/03/15 20:14:58+00,2023/03/15 20:56:56+00,2023/03/16 20:14:57+00,2023/03/15 20:14:58+00,,,,Closed,,23-00125806,Standard,316 16TH STREET NE,401522.07,136225.48,38.89387494,-76.98245479,WASHINGTON,DC,20002,39262,7,,,{F6F73F04-1E80-5B1D-E053-792F520A11EA},,,,
-77.0681596903139,38.9144189982545,10726039,S0261,Parking Enforcement,PEMA- Parking Enforcement Management Administration,DPW,1,2023/03/15 20:16:43+00,2023/03/15 22:07:54+00,2023/03/16 20:16:43+00,2023/03/15 20:16:43+00,,,,Closed,,23-00125814,Standard,1722 34TH STREET NW,394088.96,138507.27,38.91441154,-77.06815738,WASHINGTON,DC,20007,273594,2,,,{F6F73F04-1E84-5B1D-E053-792F520A11EA},,,,
-76.9962825832742,38.8316298049103,10726042,S0261,Parking Enforcement,PEMA- Parking Enforcement Management Administration,DPW,1,2023/03/15 20:20:11+00,2023/03/16 01:20:50+00,2023/03/16 20:20:11+00,2023/03/15 20:20:11+00,,,,Closed,,23-00125821,Standard,715 YUMA STREET SE,400322.97,129314.85,38.83162236,-76.99628031,WASHINGTON,DC,20032,291081,8,,,{F6F73F04-1E87-5B1D-E053-792F520A11EA},,,,
-76.9935455639669,38.894990568267,10726043,S0261,Parking Enforcement,PEMA- Parking Enforcement Management Administration,DPW,1,2023/03/15 20:20:23+00,2023/03/15 20:45:25+00,2023/03/16 20:20:23+00,2023/03/15 20:20:23+00,,,,Closed,,23-00125822,Standard,405 9TH STREET NE,400560.12,136348.37,38.89498312,-76.99354328,WASHINGTON,DC,20002,27325,6,,,{F6F73F04-1E88-5B1D-E053-792F520A11EA},,,,
-77.0164940607804,38.882063188793,10726048,S0261,Parking Enforcement,PEMA- Parking Enforcement Management Administration,DPW,1,2023/03/15 20:22:51+00,2023/03/15 23:23:18+00,2023/03/16 20:22:51+00,2023/03/15 20:22:51+00,,,,Closed,,23-00125827,Standard,600 4TH STREET SW,398569.08,134913.44,38.8820554,-77.01649177,WASHINGTON,DC,20024,318962,6,,,{F6F73F04-1E8D-5B1D-E053-792F520A11EA},,,,
-77.0022184231095,38.9209144968079,10726051,S0261,Parking Enforcement,PEMA- Parking Enforcement Management Administration,DPW,1,2023/03/15 20:26:58+00,2023/03/15 21:27:08+00,2023/03/16 20:26:58+00,2023/03/15 20:26:58+00,,,,Closed,,23-00125834,Standard,234 ASCOT PLACE NE,399807.82,139226.12,38.92090704,-77.00221614,WASHINGTON,DC,20002,48353,5,,,{F6F73F04-1E90-5B1D-E053-792F520A11EA},,,,
-76.9804810496302,38.8956565460686,10726057,S0336,Out of State Parking Violation (ROSA),PEMA- Parking Enforcement Management Administration,DPW,1,2023/03/15 20:29:04+00,2023/03/16 06:54:26+00,2023/04/27 20:29:04+00,2023/03/15 20:29:04+00,,,,Closed,,23-00125842,Standard,417 17TH STREET NE,401693.45,136422.46,38.89564876,-76.98047877,WASHINGTON,DC,20002,311020,7,,,{F6F73F04-1E96-5B1D-E053-792F520A11EA},,,,
-77.0756651528272,38.9399686361948,10726064,S0261,Parking Enforcement,PEMA- Parking Enforcement Management Administration,DPW,1,2023/03/15 21:06:49+00,2023/03/15 22:26:46+00,2023/03/16 21:06:49+00,2023/03/15 21:06:49+00,,,,Closed,,23-00125898,Standard,3900 WISCONSIN AVENUE NW,393440.39,141344.01,38.93996084,-77.07566284,WASHINGTON,DC,20016,222231,3,,,{F6F7DFFE-BE89-5F63-E053-792F520A06E7},,,,
-76.9946098411709,38.9307076061517,10726067,S0261,Parking Enforcement,PEMA- Parking Enforcement Management Administration,DPW,1,2023/03/15 21:10:59+00,2023/03/15 22:35:19+00,2023/03/16 21:10:59+00,2023/03/15 21:10:59+00,,,,Closed,,23-00125903,Standard,3305 8TH STREET NE,400467.56,140313.25,38.93069981,-76.99460756,WASHINGTON,DC,20017,309078,5,,,{F6F7DFFE-BE8C-5F63-E053-792F520A06E7},,,,
-76.98962926218,38.9464589966862,10726069,S0261,Parking Enforcement,PEMA- Parking Enforcement Management Administration,DPW,1,2023/03/15 21:11:59+00,2023/03/15 23:43:56+00,2023/03/16 21:11:59+00,2023/03/15 21:11:59+00,,,,Closed,,23-00125905,Standard,1212 BUCHANAN STREET NE,400899.21,142061.83,38.94645153,-76.98962698,WASHINGTON,DC,20017,71729,5,,,{F6F7DFFE-BE8E-5F63-E053-792F520A06E7},,,,
-77.0174606816083,38.9022889174654,10726071,S0261,Parking Enforcement,PEMA- Parking Enforcement Management Administration,DPW,1,2023/03/15 21:31:00+00,2023/03/15 22:17:04+00,2023/03/16 21:31:00+00,2023/03/15 21:31:00+00,,,,Closed,,23-00125927,Standard,440 K STREET NW,398485.64,137158.67,38.90228146,-77.01745839,WASHINGTON,DC,20001,309636,6,,,{F6F84B47-6A12-0A4D-E053-792F520A9BAF},,,,
-76.9435521903616,38.8673353091134,10726083,S0261,Parking Enforcement,PEMA- Parking Enforcement Management Administration,DPW,1,2023/03/15 21:41:49+00,2023/03/15 22:00:16+00,2023/03/16 21:41:49+00,2023/03/15 21:41:49+00,,,,Closed,,23-00125944,Standard,1550 41ST STREET SE,404898.94,133279.92,38.86732786,-76.94354993,WASHINGTON,DC,20020,60748,7,,,{F6F84B47-6A1E-0A4D-E053-792F520A9BAF},,,,
-76.9849853005201,38.8797800321121,10726090,S0261,Parking Enforcement,PEMA- Parking Enforcement Management Administration,DPW,1,2023/03/15 22:38:37+00,2023/03/16 00:48:33+00,2023/03/16 22:38:37+00,2023/03/15 22:38:37+00,,,,Closed,,23-00126018,Standard,1401 PENNSYLVANIA AVENUE SE,401303,134659.97,38.87977225,-76.98498302,WASHINGTON,DC,20003,65127,6,,,{F6F921DB-5ED2-4010-E053-792F520A8AA3},,,,
-76.9951745611782,38.9503316558228,10726094,S0261,Parking Enforcement,PEMA- Parking Enforcement Management Administration,DPW,1,2023/03/15 22:42:00+00,2023/03/15 23:38:13+00,2023/03/16 22:42:00+00,2023/03/15 22:42:00+00,,,,Closed,,23-00126022,Standard,5004 8TH STREET NE,400418.48,142491.69,38.95032419,-76.99517228,WASHINGTON,DC,20017,15329,5,,,{F6F921DB-5ED6-4010-E053-792F520A8AA3},,,,
-77.0451886524427,38.9098142659471,10726107,S0261,Parking Enforcement,PEMA- Parking Enforcement Management Administration,DPW,1,2023/03/15 23:07:18+00,2023/03/15 23:49:43+00,2023/03/16 23:07:18+00,2023/03/15 23:07:18+00,,,,Closed,,23-00126064,Standard,2003 P STREET NW,396080.9,137994.87,38.90980681,-77.04518635,WASHINGTON,DC,20036,300947,2,,,{F6F98D24-E953-0198-E053-792F520A2304},,,,
-77.0403015897463,38.9256427025221,10726109,S0261,Parking Enforcement,PEMA- Parking Enforcement Management Administration,DPW,1,2023/03/15 23:08:57+00,2023/03/16 00:15:43+00,2023/03/16 23:08:56+00,2023/03/15 23:08:57+00,,,,Closed,,23-00126066,Standard,1690 - 1741 BLOCK OF LANIER PLACE NW,396505.54,139751.760007,38.92563491,-77.04029929,WASHINGTON,DC,20009,803620,1,,,{F6F98D24-E955-0198-E053-792F520A2304},,,,
-77.0009380586055,38.9198821598701,10726113,S0261,Parking Enforcement,PEMA- Parking Enforcement Management Administration,DPW,1,2023/03/15 23:44:47+00,2023/03/16 00:29:53+00,2023/03/16 23:44:47+00,2023/03/15 23:44:47+00,,,,Closed,,23-00126089,Standard,330 RHODE ISLAND AVENUE NE,399918.85,139111.52,38.9198747,-77.00093577,WASHINGTON,DC,20002,155946,5,,,{F6FA2F9A-BD2C-06B7-E053-792F520AD266},,,,
-77.0086128764733,38.8786133716584,10726117,S0261,Parking Enforcement,PEMA- Parking Enforcement Management Administration,DPW,1,2023/03/15 23:52:57+00,2023/03/16 00:22:08+00,2023/03/16 23:52:57+00,2023/03/15 23:52:57+00,,,,Closed,,23-00126094,Standard,10 K STREET SE,399252.86,134530.39,38.87860559,-77.00861059,WASHINGTON,DC,20003,324176,6,,,{F6FA2F9A-BD30-06B7-E053-792F520AD266},,,,
-77.0484088793242,38.9083941614571,10726119,S0261,Parking Enforcement,PEMA- Parking Enforcement Management Administration,DPW,1,2023/03/15 23:58:13+00,2023/03/16 01:22:47+00,2023/03/16 23:58:13+00,2023/03/15 23:58:13+00,,,,Closed,,23-00126096,Standard,2148 O STREET NW,395801.52,137837.37,38.90838671,-77.04840658,WASHINGTON,DC,20037,242466,2,,,{F6FA2F9A-BD32-06B7-E053-792F520AD266},,,,
-77.0368389615877,38.9510070661983,10726121,S0261,Parking Enforcement,PEMA- Parking Enforcement Management Administration,DPW,1,2023/03/16 00:33:51+00,2023/03/16 02:18:10+00,2023/03/17 00:33:51+00,2023/03/16 00:33:51+00,,,,Closed (Duplicate),,23-00126110,Standard,5000 16TH STREET NW,396806.93,142567.3,38.9509996,-77.03683666,WASHINGTON,DC,20011,307820,4,,,{F6FACF0C-B859-77A8-E053-792F520A5373},,,,
-76.9855059583377,38.8981280919831,10726123,S0336,Out of State Parking Violation (ROSA),PEMA- Parking Enforcement Management Administration,DPW,1,2023/03/16 00:34:17+00,2023/03/16 06:45:07+00,2023/04/28 00:34:17+00,2023/03/16 00:34:17+00,,,,Closed,,23-00126112,Standard,600 - 699 BLOCK OF 14TH STREET NE,401257.49999999,136696.740007,38.8981203,-76.98550368,WASHINGTON,DC,20002,801279,6,,,{F6FACF0C-B85B-77A8-E053-792F520A5373},,,,
-77.0345214408815,38.945602265168,10726134,S0336,Out of State Parking Violation (ROSA),PEMA- Parking Enforcement Management Administration,DPW,1,2023/03/16 01:24:55+00,2023/03/16 06:55:04+00,2023/04/28 01:24:55+00,2023/03/16 01:24:55+00,,,,Closed,,23-00126130,Standard,4500  - 4599 BLOCK OF 15TH STREET NW,397007.59,141967.240007,38.94559447,-77.03451914,WASHINGTON,DC,20011,806374,4,,,{F6FB7024-83E5-1F12-E053-792F520A3060},,,,
-77.0368389615877,38.9510070661983,10726138,S0261,Parking Enforcement,PEMA- Parking Enforcement Management Administration,DPW,1,2023/03/16 01:30:33+00,2023/03/16 02:14:36+00,2023/03/17 01:30:33+00,2023/03/16 01:30:33+00,,,,Closed,,23-00126134,Standard,5000 16TH STREET NW,396806.93,142567.3,38.9509996,-77.03683666,WASHINGTON,DC,20011,307820,4,,,{F6FBA599-1DFD-1CE1-E053-792F520A4CFE},,,,
-77.0156207667837,38.9409165142294,10726139,S0336,Out of State Parking Violation (ROSA),PEMA- Parking Enforcement Management Administration,DPW,1,2023/03/16 01:33:42+00,2023/03/16 06:53:41+00,2023/04/28 01:33:42+00,2023/03/16 01:33:42+00,,,,Closed,,23-00126135,Standard,302 TAYLOR STREET NW,398645.97,141446.63,38.94090905,-77.01561848,WASHINGTON,DC,20011,244229,4,,,{F6FBA599-1DFE-1CE1-E053-792F520A4CFE},,,,
-76.9898777130404,38.8987156275206,10726140,S0261,Parking Enforcement,PEMA- Parking Enforcement Management Administration,DPW,1,2023/03/16 01:34:28+00,2023/03/16 02:17:11+00,2023/03/17 01:34:28+00,2023/03/16 01:34:28+00,,,,Closed,,23-00126136,Standard,1205 G STREET NE,400878.26,136761.91,38.89870817,-76.98987543,WASHINGTON,DC,20002,72007,6,,,{F6FBA599-1DFF-1CE1-E053-792F520A4CFE},,,,
-76.9953164365742,38.8803948250787,10726305,S0261,Parking Enforcement,PEMA- Parking Enforcement Management Administration,DPW,1,2023/03/15 19:20:08+00,2023/03/15 21:33:34+00,2023/03/16 19:20:08+00,2023/03/15 19:20:08+00,,,,Closed,,23-00125621,Standard,725 8TH STREET SE,400406.58,134728.12,38.88038704,-76.99531416,WASHINGTON,DC,20003,151131,6,,,{F6F66874-B236-2B0F-E053-782F520ACC5B},,,,
-77.0631180763773,38.9082894003152,10726313,S0261,Parking Enforcement,PEMA- Parking Enforcement Management Administration,DPW,1,2023/03/15 19:25:34+00,2023/03/15 20:56:22+00,2023/03/16 19:25:34+00,2023/03/15 19:25:34+00,,,,Closed,,23-00125644,Standard,3148 O STREET NW,394525.73,137826.52,38.90828195,-77.06311577,WASHINGTON,DC,20007,223685,2,,,{F6F66874-B23E-2B0F-E053-782F520ACC5B},,,,
-77.0269767119393,38.9821677532203,10726326,S0261,Parking Enforcement,PEMA- Parking Enforcement Management Administration,DPW,1,2023/03/15 19:50:26+00,2023/03/15 20:18:18+00,2023/03/16 19:50:26+00,2023/03/15 19:50:26+00,,,,Closed,,23-00125740,Standard,7600 GEORGIA AVENUE NW,397662.83,146026.13,38.98216028,-77.02697442,WASHINGTON,DC,20012,253572,4,,,{F6F6D3BE-E88C-0965-E053-782F520ADD58},,,,
-76.9804810496302,38.8956565460686,10726336,S0261,Parking Enforcement,PEMA- Parking Enforcement Management Administration,DPW,1,2023/03/15 20:30:03+00,2023/03/16 00:10:50+00,2023/03/16 20:30:03+00,2023/03/15 20:30:03+00,,,,Closed,,23-00125844,Standard,417 17TH STREET NE,401693.45,136422.46,38.89564876,-76.98047877,WASHINGTON,DC,20002,311020,7,,,{F6F774AB-BB49-3E5B-E053-782F520AA203},,,,
-77.04136516382,38.9010982095467,10726345,S0261,Parking Enforcement,PEMA- Parking Enforcement Management Administration,DPW,1,2023/03/15 20:43:54+00,2023/03/15 21:43:23+00,2023/03/16 20:43:54+00,2023/03/15 20:43:54+00,,,,Closed,,23-00125866,Standard,1776 I STREET NW,396412.08,137027.16,38.90109076,-77.04136287,WASHINGTON,DC,20006,218481,2,,,{F6F774AB-BB52-3E5B-E053-782F520AA203},,,,
-76.9849462653848,38.8686898746267,10726346,S0261,Parking Enforcement,PEMA- Parking Enforcement Management Administration,DPW,1,2023/03/15 20:46:36+00,2023/03/15 22:14:06+00,2023/03/16 20:46:36+00,2023/03/15 20:46:36+00,,,,Canceled,,23-00125868,Standard,1401 RIDGE PLACE SE,401306.59,133428.88,38.86868243,-76.98494399,WASHINGTON,DC,20020,65129,8,,,{F6F7AA4C-4563-74F9-E053-782F520A2DF2},,,,
-76.9963694667103,38.8307624726515,10726349,S0261,Parking Enforcement,PEMA- Parking Enforcement Management Administration,DPW,1,2023/03/15 20:48:37+00,2023/03/15 23:58:27+00,2023/03/16 20:48:37+00,2023/03/15 20:48:37+00,,,,Closed,,23-00125874,Standard,701 ATLANTIC STREET SE,400315.43,129218.57,38.83075503,-76.99636719,WASHINGTON,DC,20032,342,8,,,{F6F7AA4C-4566-74F9-E053-782F520A2DF2},,,,
-77.0519054257246,38.9242076033088,10726362,S0261,Parking Enforcement,PEMA- Parking Enforcement Management Administration,DPW,1,2023/03/15 21:21:07+00,2023/03/16 01:01:14+00,2023/03/16 21:21:07+00,2023/03/15 21:21:07+00,,,,Closed,,23-00125912,Standard,2600 - 2649 BLOCK OF CONNECTICUT AVENUE NW,395499.25,139592.960007,38.92419981,-77.05190312,WASHINGTON,DC,20008,807493,3,,,{F6F8159C-6794-3551-E053-782F520AFBFE},,,,
-76.9714508210393,38.8978008414494,10726363,S0261,Parking Enforcement,PEMA- Parking Enforcement Management Administration,DPW,1,2023/03/15 21:21:32+00,2023/03/15 23:32:57+00,2023/03/16 21:21:32+00,2023/03/15 21:21:32+00,,,,Closed,,23-00125913,Standard,566 25TH PLACE NE,402476.74,136660.7,38.89779339,-76.97144855,WASHINGTON,DC,20002,7178,7,,,{F6F8159C-6795-3551-E053-782F520AFBFE},,,,
-77.0281526878334,38.9305032736767,10726367,S0261,Parking Enforcement,PEMA- Parking Enforcement Management Administration,DPW,1,2023/03/15 21:24:56+00,2023/03/16 00:33:51+00,2023/03/16 21:24:56+00,2023/03/15 21:24:56+00,,,,Closed,,23-00125918,Standard,3234 11TH STREET NW,397559.17,140290.93,38.93049581,-77.02815039,WASHINGTON,DC,20010,284615,1,,,{F6F8159C-6799-3551-E053-782F520AFBFE},,,,
-77.0061780779738,38.8976272417035,10726369,S0261,Parking Enforcement,PEMA- Parking Enforcement Management Administration,DPW,1,2023/03/15 21:25:12+00,2023/03/15 22:15:20+00,2023/03/16 21:25:11+00,2023/03/15 21:25:12+00,,,,Closed,,23-00125920,Standard,50 MASSACHUSETTS AVENUE NE,399464.27,136641.06,38.89761945,-77.00617579,WASHINGTON,DC,20002,293243,6,,,{F6F8159C-679B-3551-E053-782F520AFBFE},,,,
-77.0300672095253,38.9242665200939,10726371,S0261,Parking Enforcement,PEMA- Parking Enforcement Management Administration,DPW,1,2023/03/15 21:26:34+00,2023/03/15 22:13:01+00,2023/03/16 21:26:34+00,2023/03/15 21:26:34+00,,,,Closed,,23-00125923,Standard,2620 13TH STREET NW,397392.94,139598.65,38.92425906,-77.03006492,WASHINGTON,DC,20009,231665,1,,,{F6F8159C-679D-3551-E053-782F520AFBFE},,,,
-76.9794467300385,38.9027120780035,10726381,S0261,Parking Enforcement,PEMA- Parking Enforcement Management Administration,DPW,1,2023/03/15 21:47:52+00,2023/03/15 22:49:14+00,2023/03/16 21:47:52+00,2023/03/15 21:47:52+00,,,,Closed,,23-00125955,Standard,1654 K STREET NE,401783,137205.7,38.90270462,-76.97944445,WASHINGTON,DC,20002,58450,5,,,{F6F880F1-F1E0-0C09-E053-782F520AB345},,,,
-76.9805566049904,38.9284656562181,10726392,S0336,Out of State Parking Violation (ROSA),PEMA- Parking Enforcement Management Administration,DPW,1,2023/03/15 21:58:11+00,2023/03/16 06:51:48+00,2023/04/27 21:58:11+00,2023/03/15 21:58:11+00,,,,Closed,,23-00125974,Standard,3003 17TH STREET NE,401686.12,140064.54,38.9284582,-76.98055433,WASHINGTON,DC,20018,42397,5,,,{F6F880F1-F1EB-0C09-E053-782F520AB345},,,,
-77.034423006458,38.933344707069,10726394,S0261,Parking Enforcement,PEMA- Parking Enforcement Management Administration,DPW,1,2023/03/15 21:59:57+00,2023/03/15 22:00:58+00,2023/03/16 21:59:57+00,2023/03/15 21:59:57+00,,,,Canceled,,23-00125979,Standard,1436 MERIDIAN PLACE NW,397015.61,140606.54,38.93333725,-77.03442071,WASHINGTON,DC,20010,226196,1,,,{F6F8B68A-4EC4-6E60-E053-782F520A252F},,,,
-77.0385118580878,38.9025313248118,10726398,S0261,Parking Enforcement,PEMA- Parking Enforcement Management Administration,DPW,1,2023/03/15 22:02:50+00,2023/03/15 22:45:28+00,2023/03/16 22:02:49+00,2023/03/15 22:02:50+00,,,,Closed,,23-00125986,Standard,17TH STREET NW AND K STREET NW,396659.65001085,137186.13885904,38.90252354,-77.03850956,WASHINGTON,DC,20006,900725,2,,,{F6F8B68A-4EC8-6E60-E053-782F520A252F},,,,
-76.9929765575545,38.8810847505888,10726400,S0261,Parking Enforcement,PEMA- Parking Enforcement Management Administration,DPW,1,2023/03/15 22:03:33+00,2023/03/15 22:41:19+00,2023/03/16 22:03:33+00,2023/03/15 22:03:33+00,,,,Closed,,23-00125989,Standard,921 G STREET SE,400609.6,134804.72,38.8810773,-76.99297428,WASHINGTON,DC,20003,82554,6,,,{F6F8B68A-4ECA-6E60-E053-782F520A252F},,,,
-76.9825451819962,38.8885094492763,10726414,S0261,Parking Enforcement,PEMA- Parking Enforcement Management Administration,DPW,1,2023/03/15 22:45:12+00,2023/03/16 00:12:36+00,2023/03/16 22:45:12+00,2023/03/15 22:45:12+00,,,,Closed,,23-00126029,Standard,1533 A STREET SE,401514.54,135629.04,38.888502,-76.9825429,WASHINGTON,DC,20003,61115,7,,,{F6F95774-1097-3007-E053-782F520A6AD4},,,,
-76.9719276425918,38.8637404104003,10726415,S0261,Parking Enforcement,PEMA- Parking Enforcement Management Administration,DPW,1,2023/03/15 22:46:13+00,2023/03/15 23:57:18+00,2023/03/16 22:46:13+00,2023/03/15 22:46:13+00,,,,Closed,,23-00126030,Standard,2321 ALTAMONT PLACE SE,402436.54,132879.72,38.86373296,-76.97192537,WASHINGTON,DC,20020,145406,8,,,{F6F95774-1098-3007-E053-782F520A6AD4},,,,
-76.9904275320961,38.9060814465992,10726417,S0336,Out of State Parking Violation (ROSA),PEMA- Parking Enforcement Management Administration,DPW,1,2023/03/15 22:48:46+00,2023/03/16 06:52:57+00,2023/04/27 22:48:46+00,2023/03/15 22:48:46+00,,,,Closed,,23-00126034,Standard,1323 WEST VIRGINIA AVENUE NE,400830.48,137579.57,38.90607399,-76.99042525,WASHINGTON,DC,20002,67497,5,,,{F6F95774-109A-3007-E053-782F520A6AD4},,,,
-77.0109339506749,38.9146530358204,10726422,S0261,Parking Enforcement,PEMA- Parking Enforcement Management Administration,DPW,1,2023/03/15 22:51:45+00,2023/03/15 23:36:34+00,2023/03/16 22:51:45+00,2023/03/15 22:51:45+00,,,,Closed,,23-00126039,Standard,56 SEATON PLACE NW,399051.94,138531.1,38.91464558,-77.01093166,WASHINGTON,DC,20001,227131,5,,,{F6F95774-109F-3007-E053-782F520A6AD4},,,,
-77.0203908463465,38.915419008018,10726430,S0261,Parking Enforcement,PEMA- Parking Enforcement Management Administration,DPW,1,2023/03/15 22:55:42+00,2023/03/16 00:21:13+00,2023/03/16 22:55:42+00,2023/03/15 22:55:42+00,,,,Closed,,23-00126048,Standard,600 T STREET NW,398231.8,138616.27,38.91541155,-77.02038856,WASHINGTON,DC,20001,238456,2,,,{F6F95774-10A7-3007-E053-782F520A6AD4},,,,
-76.9924839996651,38.829393180448,10726434,S0261,Parking Enforcement,PEMA- Parking Enforcement Management Administration,DPW,1,2023/03/15 22:58:47+00,2023/03/16 01:37:12+00,2023/03/16 22:58:47+00,2023/03/15 22:58:47+00,,,,Closed,,23-00126053,Standard,820 CHESAPEAKE STREET SE,400652.81,129066.59,38.82938574,-76.99248172,WASHINGTON,DC,20032,278623,8,,,{F6F95774-10AB-3007-E053-782F520A6AD4},,,,
-76.9515533864429,38.8632234079003,10726438,S0261,Parking Enforcement,PEMA- Parking Enforcement Management Administration,DPW,1,2023/03/15 23:27:53+00,2023/03/16 00:19:29+00,2023/03/16 23:27:53+00,2023/03/15 23:27:53+00,,,,Closed,,23-00126079,Standard,3804 W STREET SE,404204.81,132823.07,38.86321596,-76.95155112,WASHINGTON,DC,20020,145434,7,,,{F6F9C2C2-A7F6-2302-E053-782F520A06D5},,,,
-77.0115038684529,38.9022672251853,10726442,S0261,Parking Enforcement,PEMA- Parking Enforcement Management Administration,DPW,1,2023/03/15 23:34:01+00,2023/03/16 00:18:43+00,2023/03/16 23:34:01+00,2023/03/15 23:34:01+00,,,,Closed,,23-00126084,Standard,70 K STREET NW,399002.34,137156.18,38.90225977,-77.01150158,WASHINGTON,DC,20001,237151,6,,,{F6F9F865-DB69-6141-E053-782F520A47B5},,,,
-77.0010294859401,38.8788646587011,10726452,S0261,Parking Enforcement,PEMA- Parking Enforcement Management Administration,DPW,1,2023/03/16 00:17:30+00,2023/03/16 00:57:19+00,2023/03/17 00:17:30+00,2023/03/16 00:17:30+00,,,,Closed,,23-00126106,Standard,910 3RD PLACE SE,399910.87,134558.25,38.87885721,-77.0010272,WASHINGTON,DC,20003,308443,8,,,{F6FA99CB-4EE5-0D50-E053-782F520AA2ED},,,,
-77.0368389615877,38.9510070661983,10726454,S0261,Parking Enforcement,PEMA- Parking Enforcement Management Administration,DPW,1,2023/03/16 00:28:27+00,2023/03/16 02:18:09+00,2023/03/17 00:28:26+00,2023/03/16 00:28:27+00,,,,Closed,,23-00126109,Standard,5000 16TH STREET NW,396806.93,142567.3,38.9509996,-77.03683666,WASHINGTON,DC,20011,307820,4,,,{F6FA99CB-4EE7-0D50-E053-782F520AA2ED},,,,
-76.9358781524956,38.8878590539744,10726462,S0336,Out of State Parking Violation (ROSA),PEMA- Parking Enforcement Management Administration,DPW,1,2023/03/16 02:27:37+00,2023/03/16 06:50:52+00,2023/04/28 02:27:36+00,2023/03/16 02:27:37+00,,,,Closed,,23-00126155,Standard,4511 B STREET SE,405563.32,135558.65,38.88785127,-76.93587589,WASHINGTON,DC,20019,147594,7,,,{F6FC4681-D7A3-23E0-E053-782F520AC7E5},,,,
-77.0246074897397,38.9421117191781,10726463,S0261,Parking Enforcement,PEMA- Parking Enforcement Management Administration,DPW,1,2023/03/16 02:29:56+00,2023/03/16 08:05:13+00,2023/03/17 02:29:56+00,2023/03/16 02:29:56+00,,,,Closed,,23-00126156,Standard,843 UPSHUR STREET NW,397866.91,141579.48,38.94210392,-77.0246052,WASHINGTON,DC,20011,252455,4,,,{F6FC7C36-34E0-1543-E053-782F520A6943},,,,
-76.9809786495137,38.9027322459056,10726464,S0261,Parking Enforcement,PEMA- Parking Enforcement Management Administration,DPW,1,2023/03/16 02:32:58+00,2023/03/16 08:06:21+00,2023/03/17 02:32:58+00,2023/03/16 02:32:58+00,,,,Closed,,23-00126157,Standard,1606 K STREET NE,401650.12,137207.91,38.90272479,-76.98097637,WASHINGTON,DC,20002,60120,5,,,{F6FC7C36-34E1-1543-E053-782F520A6943},,,,
-76.9809786495137,38.9027322459056,10726465,S0336,Out of State Parking Violation (ROSA),PEMA- Parking Enforcement Management Administration,DPW,1,2023/03/16 02:34:34+00,2023/03/16 06:49:08+00,2023/04/28 02:34:34+00,2023/03/16 02:34:34+00,,,,Closed,,23-00126158,Standard,1606 K STREET NE,401650.12,137207.91,38.90272479,-76.98097637,WASHINGTON,DC,20002,60120,5,,,{F6FC7C36-34E2-1543-E053-782F520A6943},,,,
-76.993477603139,38.9247046778988,10726475,S0336,Out of State Parking Violation (ROSA),PEMA- Parking Enforcement Management Administration,DPW,1,2023/03/16 02:58:56+00,2023/03/16 06:48:23+00,2023/04/28 02:58:56+00,2023/03/16 02:58:56+00,,,,Closed,,23-00126171,Standard,902 EVARTS STREET NE,400565.78,139646.88,38.92469722,-76.99347532,WASHINGTON,DC,20018,81738,5,,,{F6FCB1CA-4A26-35CF-E053-782F520A42D9},,,,
-76.9759766248592,38.9026716891931,10726477,S0336,Out of State Parking Violation (ROSA),PEMA- Parking Enforcement Management Administration,DPW,1,2023/03/16 03:12:59+00,2023/03/16 06:47:26+00,2023/04/28 03:12:59+00,2023/03/16 03:12:59+00,,,,Closed,,23-00126174,Standard,921 19TH STREET NE,402084,137201.29,38.90266423,-76.97597435,WASHINGTON,DC,20002,82540,5,,,{F6FCE766-C6A5-29DF-E053-782F520AAAB6},,,,
-77.0336878038288,38.925179967007,10726480,S0261,Parking Enforcement,PEMA- Parking Enforcement Management Administration,DPW,1,2023/03/16 03:38:03+00,2023/03/16 08:17:53+00,2023/03/17 03:38:03+00,2023/03/16 03:38:03+00,,,,Closed,,23-00126178,Standard,1432 GIRARD STREET NW,397079.02,139700.16,38.92517251,-77.03368551,WASHINGTON,DC,20009,284035,1,,,{F6FD52B4-53E1-01F8-E053-782F520A83D9},,,,
-76.9677802991727,38.8685741013949,10726482,S0336,Out of State Parking Violation (ROSA),PEMA- Parking Enforcement Management Administration,DPW,1,2023/03/16 04:37:41+00,2023/03/16 07:24:06+00,2023/04/27 04:37:41+00,2023/03/16 04:37:41+00,,,,Closed,,23-00126186,Standard,1700 - 1899 BLOCK OF 28TH STREET SE,402796.28969654,133416.41427224,38.86856632,-76.96777803,WASHINGTON,DC,20020,812298,7,,,{F6FE2948-8C34-20A8-E053-782F520ADAA4},,,,
-77.0258038891501,38.9771337722081,10726483,S0261,Parking Enforcement,PEMA- Parking Enforcement Management Administration,DPW,1,2023/03/16 05:05:51+00,2023/03/16 08:18:47+00,2023/03/17 05:05:51+00,2023/03/16 05:05:51+00,,,,Closed,,23-00126192,Standard,7130 9TH STREET NW,397764.29,145467.28,38.9771263,-77.02580159,WASHINGTON,DC,20012,253797,4,,,{F6FE9494-D4D6-3757-E053-782F520A1C12},,,,
-76.9337632612339,38.9010817128325,10726484,S0336,Out of State Parking Violation (ROSA),PEMA- Parking Enforcement Management Administration,DPW,1,2023/03/16 05:05:57+00,2023/03/16 07:32:21+00,2023/04/28 05:05:57+00,2023/03/16 05:05:57+00,,,,Closed,,23-00126193,Standard,828 - 899 BLOCK OF 48TH STREET NE,405745.73999999,137026.60000701,38.90107392,-76.933761,WASHINGTON,DC,20019,814630,7,,,{F6FE9494-D4D7-3757-E053-782F520A1C12},,,,
-76.952503346245,38.8615674199409,10726486,S0336,Out of State Parking Violation (ROSA),PEMA- Parking Enforcement Management Administration,DPW,1,2023/03/16 09:35:19+00,2023/03/17 08:09:00+00,2023/04/28 09:35:18+00,2023/03/16 09:35:19+00,,,,Closed,,23-00126201,Standard,3744 CAMDEN STREET SE,404122.46,132639.2,38.86155964,-76.95250108,WASHINGTON,DC,20020,30916,7,,,{F7025A27-36CF-61F8-E053-782F520A6101},,,,
-76.9522249429222,38.8621317470026,10726488,S0336,Out of State Parking Violation (ROSA),PEMA- Parking Enforcement Management Administration,DPW,1,2023/03/16 09:37:39+00,2023/03/17 08:09:31+00,2023/04/28 09:37:39+00,2023/03/16 09:37:39+00,,,,Closed,,23-00126203,Standard,CAMDEN STREET SE AND 38TH STREET SE,404146.59001779,132701.85703087,38.86212396,-76.95222268,WASHINGTON,DC,20020,907706,7,,,{F7025A27-36D1-61F8-E053-782F520A6101},,,,
-76.952503346245,38.8615674199409,10726490,S0336,Out of State Parking Violation (ROSA),PEMA- Parking Enforcement Management Administration,DPW,1,2023/03/16 09:41:10+00,2023/03/17 08:09:01+00,2023/04/28 09:41:10+00,2023/03/16 09:41:10+00,,,,Closed (Duplicate),,23-00126205,Standard,3744 CAMDEN STREET SE,404122.46,132639.2,38.86155964,-76.95250108,WASHINGTON,DC,20020,30916,7,,,{F7025A27-36D3-61F8-E053-782F520A6101},,,,
-76.9522249429222,38.8621317470026,10726491,S0336,Out of State Parking Violation (ROSA),PEMA- Parking Enforcement Management Administration,DPW,1,2023/03/16 09:43:24+00,2023/03/17 08:09:32+00,2023/04/28 09:43:24+00,2023/03/16 09:43:24+00,,,,Closed (Duplicate),,23-00126206,Standard,CAMDEN STREET SE AND 38TH STREET SE,404146.59001779,132701.85703087,38.86212396,-76.95222268,WASHINGTON,DC,20020,907706,7,,,{F7025A27-36D4-61F8-E053-782F520A6101},,,,
-77.0257698103631,38.8809941962927,10726494,S0261,Parking Enforcement,PEMA- Parking Enforcement Management Administration,DPW,1,2023/03/16 10:40:17+00,2023/03/16 12:45:17+00,2023/03/17 10:40:17+00,2023/03/16 10:40:17+00,,,,Closed,,23-00126217,Standard,900 - 1199 BLOCK OF MAINE AVENUE SW,397764.22999999,134794.96000701,38.88098641,-77.02576752,WASHINGTON,DC,20024,809947,6,,,{F70330C2-028A-25DF-E053-782F520A71B1},,,,
-77.0327588999732,38.900875280568,10726495,S0261,Parking Enforcement,PEMA- Parking Enforcement Management Administration,DPW,1,2023/03/16 11:14:57+00,2023/03/16 11:42:05+00,2023/03/17 11:14:57+00,2023/03/16 11:14:57+00,,,,Closed,,23-00126228,Standard,1412 I STREET NW,397158.6,137002.11,38.90086783,-77.03275661,WASHINGTON,DC,20005,279140,2,,,{F703D1B0-92BF-65B9-E053-782F520AE8EE},,,,
-77.0010133548725,38.879119416213,10726625,S0261,Parking Enforcement,PEMA- Parking Enforcement Management Administration,DPW,1,2023/03/16 02:01:34+00,2023/03/16 07:58:04+00,2023/03/17 02:01:34+00,2023/03/16 02:01:34+00,,,,Closed,,23-00126144,Standard,335 I STREET SE,399912.27,134586.53,38.87911197,-77.00101107,WASHINGTON,DC,20003,308413,8,,,{F6FC10E2-C683-080E-E053-792F520AC95A},,,,
-76.9203441319815,38.8934301841766,10726628,S0261,Parking Enforcement,PEMA- Parking Enforcement Management Administration,DPW,1,2023/03/16 03:44:36+00,2023/03/16 08:07:33+00,2023/03/17 03:44:36+00,2023/03/16 03:44:36+00,,,,Closed,,23-00126180,Standard,286 56TH PLACE NE,406910.49,136178.15,38.89342273,-76.92034187,WASHINGTON,DC,20019,307871,7,,,{F6FD885A-49A6-3580-E053-792F520ADCD7},,,,
-77.0257174211335,38.9233390706541,10726629,S0336,Out of State Parking Violation (ROSA),PEMA- Parking Enforcement Management Administration,DPW,1,2023/03/16 03:47:47+00,2023/03/16 06:46:44+00,2023/04/28 03:47:47+00,2023/03/16 03:47:47+00,,,,Closed,,23-00126181,Standard,2568 SHERMAN AVENUE NW,397770.1,139495.58,38.92333161,-77.02571513,WASHINGTON,DC,20001,233077,1,,,{F6FD885A-49A7-3580-E053-792F520ADCD7},,,,
-77.0248366586131,38.9231493657402,10726630,S0336,Out of State Parking Violation (ROSA),PEMA- Parking Enforcement Management Administration,DPW,1,2023/03/16 03:48:48+00,2023/03/16 06:45:51+00,2023/04/28 03:48:48+00,2023/03/16 03:48:48+00,,,,Closed,,23-00126182,Standard,2525 SHERMAN AVENUE NW,397846.47,139474.5,38.92314191,-77.02483437,WASHINGTON,DC,20001,232302,1,,,{F6FD885A-49A8-3580-E053-792F520ADCD7},,,,
-77.0154993883103,38.9402376654515,10726634,S0336,Out of State Parking Violation (ROSA),PEMA- Parking Enforcement Management Administration,DPW,1,2023/03/16 04:56:25+00,2023/03/16 07:24:58+00,2023/04/27 04:56:24+00,2023/03/16 04:56:25+00,,,,Closed,,23-00126189,Standard,4000 3RD STREET NW,398656.48,141371.27,38.9402302,-77.0154971,WASHINGTON,DC,20011,244189,4,,,{F6FE5EFD-D0B0-27D4-E053-792F520A994C},,,,
-77.0249353417282,38.9210841863842,10726635,S0261,Parking Enforcement,PEMA- Parking Enforcement Management Administration,DPW,1,2023/03/16 05:31:11+00,2023/03/16 08:24:03+00,2023/03/17 05:31:11+00,2023/03/16 05:31:11+00,,,,Closed,,23-00126195,Standard,2323 SHERMAN AVENUE NW,397837.85,139245.25,38.92107639,-77.02493305,WASHINGTON,DC,20001,232313,1,,,{F6FEFFE4-2309-1E8E-E053-792F520A9110},,,,
-77.0249353417282,38.9210841863842,10726637,S0261,Parking Enforcement,PEMA- Parking Enforcement Management Administration,DPW,1,2023/03/16 08:38:27+00,2023/03/16 14:00:00+00,2023/03/17 08:38:27+00,2023/03/16 08:38:27+00,,,,Closed,,23-00126199,Standard,2323 SHERMAN AVENUE NW,397837.85,139245.25,38.92107639,-77.02493305,WASHINGTON,DC,20001,232313,1,,,{F7018394-6A6B-448E-E053-792F520AD3B0},,,,
-76.952503346245,38.8615674199409,10726639,S0336,Out of State Parking Violation (ROSA),PEMA- Parking Enforcement Management Administration,DPW,1,2023/03/16 09:45:49+00,2023/03/17 08:09:01+00,2023/04/28 09:45:48+00,2023/03/16 09:45:49+00,,,,Closed (Duplicate),,23-00126208,Standard,3744 CAMDEN STREET SE,404122.46,132639.2,38.86155964,-76.95250108,WASHINGTON,DC,20020,30916,7,,,{F7028FE4-2F7E-37F1-E053-792F520A031F},,,,
